stop_code,stop_url,stop_lat,stop_timezone,preferred,stop_desc,stop_id,parent_station,stop_name,stop_lon,location_type,wheelchair_boarding,zone_id
10,,43.90333273838791,,2,,10,,Garden Northbound @ Bassett (South stop),-78.94155897953233,0,1,
100,,43.87593224,,2,,100,,McQuay Northbound @ Dundas,-78.961715,0,1,
1000,,43.87268331,,2,,1000,,Glen Northbound @ Medina,-78.855412,0,1,
1001,,43.87529628,,2,,1001,,Northbound @ 825 Glen,-78.856489,0,1,
1002,,43.875507,,2,,1002,,Malaga Westbound @ Oxford,-78.858799,0,1,
1003,,43.874698,,1,,1003,,Malaga Westbound @ Park,-78.862502,0,1,
101,,43.878431,,2,,101,,McQuay Northbound @ Moonstone,-78.96314599999998,0,1,
1014,,43.87443,,2,,1014,,Malaga Eastbound @ Park,-78.863301,0,2,
1015,,43.875032,,2,,1015,,Malaga Eastbound @ Oxford (West side stop),-78.86054799999998,0,1,
1016,,43.875586,,2,,1016,,Malaga Eastbound @ Oxford (East side stop),-78.857982,0,1,
1017,,43.87507063000001,,2,,1017,,Southbound @ 830 Glen,-78.85656,0,1,
1018,,43.87281378,,2,,1018,,Glen Southbound @ Medina,-78.855636,0,1,
1019,,43.871258,,2,,1019,,Glen Southbound @ Porter,-78.854967,0,1,
102,,43.879593,,2,,102,,McQuay Northbound @ Kennett,-78.965224,0,1,
1020,,43.87253,,2,,1020,,Wentworth Eastbound @ Ravine,-78.84718,0,1,
1023,,43.872059,,2,,1023,,Simcoe Southbound @ Ritson,-78.841181,0,1,
1024,,43.870666,,2,,1024,,Simcoe Southbound @ Wellington,-78.8386,0,1,
1025,,43.86897900000001,,2,,1025,,Simcoe Southbound @ Kawartha,-78.835431,0,1,
1027,,43.863287,,2,,1027,,Westbound @ 60 Lakeview Park,-78.82959099999998,0,1,
1029,,43.861379,,2,,1029,,Lakeview Park Westbound @ Ritson,-78.836721,0,1,
103,,43.881326,,2,,103,,McQuay Northbound @ Balsdon,-78.966408,0,1,
1030,,43.86425,,2,,1030,,Valley Westbound @ Ritson,-78.83846,0,1,
1032,,43.86300700000001,,2,,1032,,Phillip Murray Southbound @ Scugog,-78.84441,0,1,
1033,,43.86144322995122,,2,,1033,,Cedar Northbound @ Phillip Murray,-78.84781779532226,0,1,
104,,43.8836627,,2,,104,,McQuay Northbound @ Bonacord,-78.9673866,0,1,
1052,,43.867405,,1,,1052,,Eastbound @ 1733 Victoria,-78.899322,0,2,
1053,,43.8748675,,2,,1053,,Eastbound @ 555 Bloor,-78.8787787,0,1,
1055,,43.878406,,2,,1055,,Eastbound @ 249 Bloor,-78.864296,0,1,
1056,,43.879381,,2,,1056,,Bloor Eastbound @ Oxford,-78.860118,0,1,
1057,,43.880241,,2,,1057,,Bloor Eastbound @ Simcoe,-78.856285,0,1,
1058,,43.880885,,2,,1058,,Bloor Eastbound @ Albert,-78.853414,0,1,
1059,,43.8816337,,2,,1059,,Bloor Eastbound @ Merritt,-78.8499396,0,1,
106,,43.888336,,2,,106,,McQuay Northbound @ Renfield,-78.969264,0,1,
1066,,43.888433,,2,,1066,,Eastbound @ 887 Bloor,-78.819826,0,2,
1067,,43.889648,,2,,1067,,Grandview Southbound @ Bloor (South side stop),-78.813063,0,1,
1068,,43.88767,,2,,1068,,Grandview Southbound @ Downview,-78.810582,0,1,
1069,,43.88659650000001,,2,,1069,,Grandview Southbound @ Norman,-78.8095866,0,1,
107,,43.89000200000001,,2,,107,,McQuay Northbound @ Jacob,-78.97109399999998,0,1,
1070,,43.886499,,2,,1070,,Grandview Eastbound @ Southdown,-78.806985,0,1,
1071,,43.88752003,,2,,1071,,Townline Northbound @ Grandview,-78.80497908,0,1,
108,,43.889791,,2,,108,,McQuay Westbound @ Muir,-78.97463999999998,0,1,
1080,,43.888469,,2,,1080,,Westbound @ 882 Bloor,-78.820015,0,1,
1083,,43.885798,,2,,1083,,Bloor Westbound @ Farewell,-78.83223599999998,0,1,
1084,,43.885282,,2,,1084,,Bloor Westbound @ Holland,-78.83441,0,1,
1088,,43.881681,,2,,1088,,Bloor Westbound @ Merritt,-78.85046,0,1,
1089,,43.880638,,2,,1089,,Bloor Westbound @ Simcoe,-78.855267,0,1,
1090,,43.8794327,,2,,1090,,Bloor Westbound @ Oxford,-78.86027799999998,0,1,
1091,,43.878553,,2,,1091,,Bloor Westbound @ Park,-78.864334,0,1,
1096,,43.874477,,2,,1096,,Simcoe Northbound @ Wentworth,-78.845479,0,1,
1097,,43.876246,,2,,1097,,Simcoe Northbound @ Wolfe,-78.848778,0,1,
11,,43.898916,,2,,11,,Garden Northbound @ Rossland (Durham Region Headquarters),-78.939531,0,1,
110,,43.894933,,2,,110,,Country Lane Northbound @ Rossland,-78.965943,0,1,
1101,,43.878222,,2,,1101,,Eastbound @ 1189 Colonel Sam,-78.807633,0,1,
1118,,43.884732,,2,,1118,,Farewell Southbound @ Bloor,-78.83069399999998,0,1,
1119,,43.881319,,1,,1119,,Farewell Southbound @ Raleigh,-78.829233,0,1,
1120,,43.8799536,,2,,1120,,Farewell Southbound @ Wentworth,-78.8286811,0,1,
1132,,43.887357,,2,,1132,,Park Northbound @ Quebec,-78.869767,0,2,
1133,,43.90656,,1,,1133,,King Westbound @ Townline,-78.81421,0,1,
1134,,43.906087,,2,,1134,,King Westbound @ Athabasca,-78.818826,0,1,
1135,,43.905816,,2,,1135,,King Westbound @ Kingsway College,-78.821771,0,1,
1136,,43.90592800000001,,2,,1136,,King Westbound @ Keewatin,-78.827635,0,1,
1137,,43.90541000000001,,2,,1137,,King Westbound @ Melrose,-78.829896,0,1,
1138,,43.905084,,1,,1138,,Harmony Northbound @ King,-78.834293,0,1,
1139,,43.907681,,2,,1139,,Harmony Northbound @ Regent,-78.835475,0,1,
114,,43.896118,,2,,114,,Country Lane Northbound @ Wetherburn,-78.966829,0,1,
1140,,43.908962,,2,,1140,,Harmony Northbound @ Eastbourne,-78.836021,0,1,
1141,,43.91195900000001,,1,,1141,,Harmony Northbound @ Adelaide,-78.837306,0,2,
1142,,43.917231,,2,,1142,,Northbound @ 443 Harmony,-78.839598,0,1,
1143,,43.933475,,2,,1143,,Harmony Northbound @ Swiss,-78.84678599999998,0,1,
1144,,43.935668,,2,,1144,,Harmony Northbound @ Grand Ridge,-78.847728,0,1,
1145,,43.91292,,1,,1145,,Harmony Southbound @ Adelaide,-78.83798,0,1,
1146,,43.90900100000001,,2,,1146,,Harmony Southbound @ Eastbourne,-78.836235,0,1,
1147,,43.907603,,2,,1147,,Harmony Southbound @ Regent,-78.835614,0,1,
1148,,43.904711,,1,,1148,,Harmony Southbound @ King,-78.83438599999998,0,1,
1149,,43.90330500000001,,2,,1149,,Harmony Southbound @ Palace,-78.833634,0,1,
115,,43.898544,,2,,115,,Country Lane Northbound @ Gartshore,-78.969667,0,1,
1150,,43.901176,,2,,1150,,Harmony Southbound @ Hoskin,-78.83266999999998,0,1,
1151,,43.899357,,2,,1151,,Southbound @ 188 Harmony,-78.831854,0,2,
1152,,43.896955,,2,,1152,,Harmony Southbound @ Florell,-78.830782,0,1,
1153,,43.89775,,2,,1153,,Harmony Northbound @ Old Harmony,-78.830938,0,1,
1154,,43.899752,,2,,1154,,Harmony Northbound @ Hoskin,-78.831838,0,1,
1155,,43.90378813,,2,,1155,,Harmony Northbound @ Palace,-78.833706,0,2,
1156,,43.90424800000001,,1,,1156,,King Westbound @ Harmony,-78.835009,0,2,
1157,,43.90426723,,2,,1157,,Bond Northbound @ Riverside,-78.837534,0,1,
1158,,43.90453,,2,,1158,,Bond Westbound @ Claymore (East side stop),-78.84238999999998,0,1,
1159,,43.904135,,1,,1159,,Bond Westbound @ Claymore (West side stop),-78.844005,0,1,
116,,43.900852,,2,,116,,Country Lane Northbound @ Randolph,-78.970374,0,1,
1160,,43.90335675,,2,,1160,,Bond Westbound @ Cadillac,-78.847111,0,1,
1161,,43.902664,,2,,1161,,Bond Westbound @ Patricia,-78.84988199999998,0,1,
1162,,43.901254,,2,,1162,,Bond Westbound @ Oshawa Boulevard,-78.85265699999998,0,1,
1163,,43.900548,,1,,1163,,Bond Westbound @ Ritson,-78.855176,0,1,
1164,,43.899252,,2,,1164,,Bond Westbound @ Mary,-78.86069,0,1,
1165,,43.89857640000001,,1,,1165,,Bond Westbound @ Simcoe,-78.8638232,0,2,
1166,,43.8980427,,1,,1166,,Bond Westbound @ Centre,-78.86599339999998,0,1,
1167,,43.8971812,,2,,1167,,Bond Westbound @ Arena,-78.8700233,0,2,
1169,,43.896215,,1,,1169,,Bond Westbound @ Park,-78.87463099999998,0,1,
117,,43.9031059,,2,,117,,Country Lane Northbound @ Twin Streams,-78.9716001,0,1,
1171,,43.895268,,2,,1171,,Bond Westbound @ Gibbons,-78.878156,0,1,
1172,,43.89388328,,1,,1172,,Bond Westbound @ Stevenson,-78.884232,0,1,
1173,,43.892156,,2,,1173,,King Westbound @ Waverly,-78.888154,0,1,
1174,,43.89066900000001,,1,,1174,,King Westbound @ Thornton,-78.894721,0,1,
1175,,43.8910876,,1,,1175,,King Eastbound @ Thornton,-78.8920772,0,1,
1176,,43.891958,,2,,1176,,King Eastbound @ Waverly,-78.88811099999998,0,1,
1177,,43.89334800000001,,1,,1177,,King Eastbound @ Stevenson,-78.88199,0,1,
1178,,43.89406180000001,,2,,1178,,King Eastbound @ Gibbons,-78.8787275,0,1,
118,,43.907044,,2,,118,,Country Lane Northbound @ Medland,-78.973335,0,1,
1181,,43.895479,,1,,1181,,King Eastbound @ Warren,-78.872558,0,2,
1183,,43.896359,,2,,1183,,King Eastbound @ Midtown,-78.868644,0,2,
1185,,43.898339,,2,,1185,,King Eastbound @ Mary,-78.860061,0,2,
1186,,43.899141,,2,,1186,,King Eastbound @ Drew,-78.856595,0,2,
1187,,43.89992500000001,,1,,1187,,King Eastbound @ Rowe,-78.853177,0,1,
1188,,43.901002,,2,,1188,,King Eastbound @ Central Park,-78.848573,0,1,
1189,,43.901543,,2,,1189,,King Eastbound @ Cadillac,-78.846174,0,1,
119,,43.9105664,,2,,119,,Country Lane Northbound @ Taunton,-78.9766051,0,1,
1190,,43.902215,,1,,1190,,King Eastbound @ Wilson,-78.843385,0,2,
1192,,43.903023,,2,,1192,,King Eastbound @ Farewell,-78.839804,0,1,
1193,,43.90361,,2,,1193,,King Eastbound @ Riverside,-78.837145,0,1,
1194,,43.904153,,2,,1194,,King Eastbound @ Harmony,-78.834637,0,1,
1195,,43.905525,,2,,1195,,King Eastbound @ Melrose,-78.828657,0,1,
1196,,43.905856,,2,,1196,,King Eastbound @ Keewatin,-78.82687,0,1,
1197,,43.90560521,,2,,1197,,King Eastbound @ Grandview,-78.823016,0,1,
1198,,43.905817,,2,,1198,,King Eastbound @ Rockcliffe,-78.820278,0,1,
1199,,43.90612500000001,,2,,1199,,King Eastbound @ Eastlawn,-78.816804,0,1,
12,,43.901464,,2,,12,,Northbound @ 3093 Garden,-78.940766,0,1,
1200,,43.906406,,1,,1200,,King Eastbound @ Townline,-78.813775,0,1,
1217,,43.914105,,2,,1217,,Courtice Southbound @ Moyse (Courtice Community Complex),-78.778936,0,2,
1218,,43.911594,,1,,1218,,Highway 2 Westbound @ Courtice,-78.779235,0,1,
1219,,43.911048,,1,,1219,,Highway 2 Westbound @ Trulls,-78.788115,0,1,
1220,,43.909174,,2,,1220,,Highway 2 Westbound @ Sandringham,-78.79601,0,2,
1221,,43.908585,,1,,1221,,Highway 2 Westbound @ Prestonvale,-78.797674,0,1,
1222,,43.90764200000001,,1,,1222,,Highway 2 Westbound @ Centerfield,-78.803571,0,1,
1223,,43.907163,,2,,1223,,Highway 2 Westbound @ Varcoe,-78.807587,0,1,
1224,,43.906907,,2,,1224,,Highway 2 Eastbound @ Darlington Boulevard,-78.808273,0,1,
1225,,43.907393,,1,,1225,,Highway 2 Eastbound @ Old Kingston,-78.803827,0,1,
1226,,43.910864,,2,,1226,,Courtice Southbound @ Highway 2,-78.777544,0,2,
1227,,43.909137,,2,,1227,,Sandringham Westbound @ Short,-78.778369,0,1,
1228,,43.907937,,2,,1228,,Avondale Southbound @ Stagemaster,-78.779807,0,1,
1229,,43.90579242,,2,,1229,,Avondale Southbound @ Brownstone,-78.780964,0,1,
1230,,43.904046,,2,,1230,,Avondale Southbound @ Farmington,-78.781861,0,1,
1231,,43.903403,,2,,1231,,Trulls Northbound @ Avondale,-78.784876,0,1,
1232,,43.90456300000001,,2,,1232,,Northbound @ 2501 Trulls,-78.785437,0,1,
1233,,43.9059139,,2,,1233,,Sandringham Westbound @ Bushford,-78.78781669999998,0,1,
1234,,43.90300993000001,,2,,1234,,Sandringham Westbound @ Yorkville,-78.790682,0,1,
1242,,43.89762300000001,,1,,1242,,King Eastbound @ Simcoe,-78.863176,0,2,
1244,,43.908429,,1,,1244,,Highway 2 Eastbound @ Prestonvale,-78.797456,0,1,
1245,,43.910829,,1,,1245,,Highway 2 Eastbound @ Trulls,-78.787906,0,1,
125,,43.912852,,2,,125,,Taunton Eastbound @ Cochrane,-78.96736199999998,0,2,
1252,,43.896941,,2,,1252,,Olive Westbound @ Viewmount,-78.821096,0,1,
1255,,43.89598841,,2,,1255,,Olive Westbound @ Florell,-78.82724399999998,0,1,
1257,,43.89510700000001,,1,,1257,,Olive Westbound @ Elmridge,-78.83126799999998,0,1,
1258,,43.894441,,2,,1258,,Olive Westbound @ Poplar,-78.834343,0,1,
1259,,43.89386600000001,,2,,1259,,Olive Westbound @ Baldwin,-78.836928,0,1,
1260,,43.893383,,2,,1260,,Olive Westbound @ Wilson,-78.839031,0,1,
1261,,43.892828,,2,,1261,,Olive Westbound @ Highland,-78.841487,0,1,
1262,,43.892535,,2,,1262,,Olive Westbound @ Lasalle,-78.842817,0,1,
1263,,43.891779,,2,,1263,,Olive Westbound @ Verdun,-78.846057,0,1,
1264,,43.890989,,2,,1264,,Olive Westbound @ Ritson,-78.849481,0,2,
1265,,43.89046,,2,,1265,,Olive Westbound @ Drew,-78.851768,0,2,
1266,,43.889641,,2,,1266,,Olive Westbound @ Court,-78.855284,0,1,
127,,43.909537,,2,,127,,Cochrane Southbound @ Medland,-78.966002,0,1,
1276,,43.8881292,,2,,1276,,Gibb Westbound @ Montrave,-78.87118169999998,0,1,
1277,,43.887291,,2,,1277,,Gibb Westbound @ Grenfell,-78.874471,0,1,
1278,,43.88680200000001,,2,,1278,,Westbound @ 450 Gibb,-78.87697,0,1,
1280,,43.88595200000001,,2,,1280,,Gibb Westbound @ Stevenson (West side stop),-78.880912,0,1,
1281,,43.885118,,2,,1281,,Gibb Westbound @ Waverly,-78.884574,0,1,
1282,,43.884493,,2,,1282,,Gibb Westbound @ Vancouver,-78.887244,0,1,
1283,,43.884355,,2,,1283,,Gibb Eastbound @ Vancouver,-78.88744699999998,0,1,
1284,,43.885076,,2,,1284,,Gibb Eastbound @ Waverly,-78.884308,0,1,
1285,,43.885932,,2,,1285,,Gibb Eastbound @ Stevenson (West side stop),-78.88051299999998,0,1,
1286,,43.88625932,,2,,1286,,Gibb Eastbound @ Stevenson (East side stop),-78.87870599999998,0,1,
1287,,43.886764,,2,,1287,,Eastbound @ 431 Gibb,-78.876312,0,1,
1288,,43.887267,,2,,1288,,Gibb Eastbound @ Grenfell,-78.874165,0,1,
1289,,43.88775900000001,,2,,1289,,Gibb Eastbound @ Montrave,-78.87204699999998,0,1,
129,,43.905578,,2,,129,,Cochrane Southbound @ Twin Streams,-78.964539,0,1,
1297,,43.889552,,2,,1297,,Olive Eastbound @ Court,-78.855367,0,1,
1298,,43.890302,,2,,1298,,Olive Eastbound @ Drew,-78.852093,0,1,
1299,,43.891187,,2,,1299,,Olive Eastbound @ Oshawa Boulevard,-78.848202,0,1,
13,,43.903334,,2,,13,,Garden Northbound @ Bassett (North stop),-78.941556,0,1,
1300,,43.89248,,2,,1300,,Olive Eastbound @ Lasalle,-78.842598,0,1,
1301,,43.892801,,2,,1301,,Olive Eastbound @ Highland,-78.841125,0,1,
1302,,43.893281,,2,,1302,,Olive Eastbound @ Windsor,-78.839043,0,1,
1303,,43.89384600000001,,2,,1303,,Olive Eastbound @ Guelph,-78.836642,0,1,
1304,,43.894358,,2,,1304,,Olive Eastbound @ Poplar,-78.834306,0,1,
1305,,43.89498,,1,,1305,,Olive Eastbound @ Elmridge,-78.831355,0,1,
1306,,43.895449,,1,,1306,,Olive Eastbound @ Harcourt,-78.829032,0,2,
1307,,43.89581297,,2,,1307,,Olive Eastbound @ Florell,-78.827236,0,1,
1308,,43.89644,,2,,1308,,Olive Eastbound @ Dianne,-78.824685,0,1,
1309,,43.896856,,2,,1309,,Olive Eastbound @ Keewatin,-78.821788,0,1,
1339,,43.891145,,2,,1339,,Rosswell Northbound @ Bloor,-78.798484,0,2,
1353,,43.928625,,2,,1353,,Northbound @ 1185 Mary,-78.873907,0,1,
1354,,43.931137,,2,,1354,,Nonquon Northbound @ Mary,-78.87249799999998,0,1,
1355,,43.93247800000001,,2,,1355,,Mary Northbound @ Nonquon,-78.87221,0,1,
1356,,43.93385593,,2,,1356,,Mary Northbound @ Taunton,-78.872776,0,1,
1359,,43.895694,,2,,1359,,Park Southbound @ King,-78.873767,0,2,
1360,,43.893793,,2,,1360,,Park Southbound @ Pine,-78.87290299999998,0,2,
1361,,43.891968,,2,,1361,,Park Southbound @ Elmgrove,-78.872083,0,2,
1362,,43.88699031,,2,,1362,,Park Southbound @ Marland,-78.869855,0,2,
1363,,43.8922679,,2,,1363,,Park Northbound @ John,-78.8719904,0,2,
1364,,43.8946786,,2,,1364,,Park Northbound @ King,-78.873147,0,2,
1371,,43.929548,,2,,1371,,Beatrice Westbound @ Sycamore,-78.869207,0,1,
1372,,43.926963,,2,,1372,,Beatrice Westbound @ Mary,-78.872625,0,1,
138,,43.881419,,2,,138,,McQuay Southbound @ Roan,-78.966575,0,1,
139,,43.879842,,2,,139,,McQuay Southbound @ Kennett,-78.96569599999998,0,1,
1391,,43.918275,,1,,1391,,King Westbound @ Beaver,-78.585761,0,2,
1392,,43.921392,,2,,1392,,North Northbound @ Monroe,-78.593264,0,2,
1395,,43.98281,,2,,1395,,Main Southbound @ Millson Hill,-78.62001,0,2,
1396,,43.977406,,2,,1396,,Main Southbound @ Centreview,-78.617544,0,1,
14,,43.904811,,2,,14,,Garden Northbound @ Dryden,-78.942227,0,1,
140,,43.878277,,2,,140,,McQuay Southbound @ Moonstone,-78.963114,0,1,
1408,,43.917763,,2,,1408,,Mill Northbound @ King,-78.588888,0,1,
141,,43.876649,,2,,141,,McQuay Southbound @ Allayden,-78.962215,0,1,
1410,,43.921133,,2,,1410,,North Southbound @ Grady,-78.593093,0,2,
1411,,43.916949,,2,,1411,,King Westbound @ North,-78.591266,0,1,
1412,,43.91693200000001,,2,,1412,,King Eastbound @ Baldwin,-78.590838,0,2,
1413,,43.915658,,1,,1413,,King Westbound @ Pedwell,-78.59710699999998,0,1,
1414,,43.915331,,2,,1414,,King Eastbound @ Massey,-78.597667,0,1,
1415,,43.914759,,2,,1415,,King Westbound @ Rudell,-78.60070899999998,0,1,
1416,,43.914433,,2,,1416,,Highway 2 Eastbound @ Rudell,-78.60155,0,2,
1430,,43.910554,,2,,1430,,King Westbound @ Liberty,-78.680784,0,2,
1431,,43.911481,,2,,1431,,King Westbound @ George,-78.68621,0,2,
1432,,43.91215300000001,,1,,1432,,King Westbound @ Temperance,-78.688526,0,2,
1433,,43.912962,,2,,1433,,King Westbound @ Roenigk,-78.695055,0,1,
1436,,43.909692,,2,,1436,,Highway 2 Westbound @ Boswell,-78.71688,0,1,
1452,,43.912771,,2,,1452,,King Eastbound @ Roenigk,-78.694976,0,1,
1454,,43.911662,,2,,1454,,King Eastbound @ Division,-78.687321,0,2,
1455,,43.911026,,2,,1455,,King Eastbound @ Ontario,-78.684811,0,2,
1456,,43.91041,,2,,1456,,King Eastbound @ Liberty,-78.680907,0,1,
1476,,43.924876,,2,,1476,,Scugog Southbound @ Longworth,-78.697139,0,1,
1477,,43.920873,,2,,1477,,Scugog Southbound @ Jackman,-78.695321,0,1,
1478,,43.916997,,2,,1478,,Scugog Southbound @ O'Dell,-78.69368299999998,0,2,
1479,,43.913909,,2,,1479,,Church Eastbound @ Scugog Street,-78.691688,0,1,
1480,,43.913138,,1,,1480,,Church Eastbound @ Temperance,-78.688545,0,2,
1494,,43.90430979,,2,,1494,,Liberty Southbound @ Park,-78.67758996,0,2,
1498,,43.911329,,1,,1498,,Simpson Northbound @ King,-78.675014,0,1,
1499,,43.908346,,2,,1499,,Prince Eastbound @ Liberty (Lakeridge Health Bowmanville),-78.678921,0,1,
15,,43.908512,,2,,15,,Garden Northbound @ Willowbrook,-78.943865,0,1,
1504,,43.908456,,1,,1504,,Clarington Boulevard Southbound @ Prince William,-78.70716,0,1,
151,,43.870396,,2,,151,,Burns Eastbound @ Henry,-78.943946,0,2,
1519,,43.825165,,2,,1519,,Pine Grove Westbound @ Nordane,-79.145977,0,1,
152,,43.871125,,2,,152,,Burns Eastbound @ Centre,-78.940651,0,2,
1547,,43.825601,,2,,1547,,Strouds Lane Eastbound @ Autumn,-79.132569,0,1,
1548,,43.826216,,2,,1548,,Strouds Lane Eastbound @ Rosebank,-79.130377,0,1,
1574,,43.827652,,2,,1574,,Strouds Lane Northbound @ Fernam,-79.126176,0,1,
1575,,43.828696,,2,,1575,,Strouds Lane Eastbound @ Foxwood Trail,-79.124103,0,1,
1586,,43.829426,,2,,1586,,Strouds Lane Westbound @ Whites (West side stop),-79.121337,0,1,
1587,,43.868228,,2,,1587,,Kingston Westbound @ Audley,-78.995249,0,2,
1588,,43.86702,,2,,1588,,Kingston Westbound @ Alexanders Crossing,-79.00077,0,1,
1590,,43.8643554,,2,,1590,,Kingston Westbound @ Wicks,-79.0125542,0,1,
1591,,43.8634084,,1,,1591,,Kingston Westbound @ Salem,-79.0168413,0,1,
1593,,43.862111,,2,,1593,,Westbound @ 84 Kingston,-79.022563,0,1,
1594,,43.8611712,,1,,1594,,Kingston Westbound @ Harwood,-79.0267418,0,1,
1595,,43.859995,,2,,1595,,Westbound @ 132 Kingston,-79.031718,0,1,
1596,,43.859254,,2,,1596,,Kingston Westbound @ Chapman,-79.035043,0,1,
1597,,43.85832,,2,,1597,,Kingston Westbound @ Westney Heights Plaza,-79.03932,0,1,
1598,,43.85744,,1,,1598,,Kingston Westbound @ Westney,-79.043041,0,1,
1599,,43.856298,,2,,1599,,Kingston Westbound @ Mill,-79.047905,0,2,
16,,43.91038600000001,,2,,16,,Garden Northbound @ Meadowglen,-78.944674,0,1,
1600,,43.85465700000001,,1,,1600,,Kingston Westbound @ Church,-79.05529,0,2,
1601,,43.853329,,2,,1601,,Kingston Westbound @ Elizabeth,-79.060678,0,1,
1602,,43.852381,,2,,1602,,Kingston Westbound @ Notion,-79.064752,0,1,
1603,,43.8501483,,2,,1603,,Kingston Westbound @ Bainbridge,-79.0710031,0,1,
1604,,43.84772,,1,,1604,,Kingston Westbound @ Brock Road,-79.07452499999998,0,1,
1607,,43.84172800000001,,2,,1607,,Kingston Westbound @ Valley Farm,-79.083084,0,1,
1608,,43.83815,,1,,1608,,Kingston Westbound @ Glenanna,-79.08748,0,1,
1609,,43.83548,,1,,1609,,Kingston Westbound @ Liverpool,-79.09104,0,1,
1610,,43.83097019,,2,,1610,,Kingston Westbound @ Walnut,-79.09672757,0,1,
1611,,43.82906,,1,,1611,,Kingston Westbound @ Dixie,-79.098675,0,1,
1612,,43.823716,,1,,1612,,Kingston Westbound @ Fairport,-79.106421,0,1,
1613,,43.821703,,2,,1613,,Westbound @ 804 Kingston,-79.111949,0,1,
1615,,43.817215,,1,,1615,,Kingston Westbound @ Steeple Hill,-79.118076,0,1,
1616,,43.81332,,2,,1616,,Kingston Westbound @ Rosebank,-79.123324,0,1,
1617,,43.809718,,2,,1617,,Kingston Westbound @ Rougemount,-79.129028,0,1,
1645,,43.82025,,2,,1645,,West Shore Southbound @ Vistula,-79.105278,0,1,
166,,43.86900700000001,,2,,166,,Brock Street Northbound @ Arthur,-78.937411,0,2,
1663,,43.817692,,2,,1663,,West Shore Southbound @ Samford,-79.104211,0,1,
167,,43.87108400000001,,1,,167,,Brock Street Northbound @ St Peter,-78.93832,0,2,
1674,,43.817582,,2,,1674,,West Shore Northbound @ Samford,-79.104031,0,1,
168,,43.872514,,2,,168,,Brock Street Northbound @ Burns,-78.938948,0,2,
1685,,43.813826,,2,,1685,,Oklahoma Westbound @ West Shore,-79.103099,0,1,
1687,,43.813024,,2,,1687,,Oklahoma Westbound @ Hillcrest,-79.10671499999998,0,1,
1689,,43.821218,,2,,1689,,Bayly Eastbound @ West Shore,-79.105446,0,1,
169,,43.873574,,2,,169,,Brock Street Northbound @ Trent,-78.93940499999998,0,2,
1690,,43.822764,,2,,1690,,Bayly Eastbound @ 957 Bayly,-79.102195,0,2,
1693,,43.827085,,2,,1693,,Bayly Eastbound @ St Martins,-79.092836,0,1,
1694,,43.828787,,2,,1694,,Bayly Eastbound @ Liverpool,-79.08666599999998,0,1,
1695,,43.82915733045823,,2,,1695,,Bayly Eastbound @ Pickering Station,-79.08495872161193,0,2,
17,,43.91380800000001,,2,,17,,Garden Northbound @ Cork,-78.946197,0,1,
170,,43.87664417732835,,2,,170,,Brock Street Northbound @ Gilbert,-78.9408107746133,0,2,
1701,,43.824092,,2,,1701,,Alyssum Eastbound @ Lublin,-79.075833,0,1,
1703,,43.819293,,2,,1703,,Sandy Beach Southbound @ Parkham,-79.072432,0,1,
1706,,43.8143165023665,,2,,1706,,Montgomery Park Eastbound @ OPG Pickering,-79.06519369171588,0,2,
1707,,43.815436,,2,,1707,,Montgomery Park Eastbound @ Brock Road,-79.06028999999998,0,2,
1709,,43.819181,,2,,1709,,McKay Northbound @ Montgomery Park,-79.05741,0,2,
171,,43.879703,,1,,171,,Brock Street Northbound @ Dundas,-78.94210099999998,0,2,
1711,,43.821982,,2,,1711,,Squires Beach Northbound @ McKay,-79.05191499999998,0,2,
1712,,43.824595,,2,,1712,,Northbound @ 1111 Squires Beach,-79.053029,0,2,
1713,,43.827022,,2,,1713,,Clements Westbound @ Squires Beach,-79.054705,0,2,
1714,,43.8266135,,2,,1714,,Westbound @ 1850 Clements,-79.05666669999998,0,2,
1715,,43.825697,,2,,1715,,Westbound @ 1768 Clements,-79.060627,0,2,
1716,,43.825146,,1,,1716,,Clements Westbound @ Brock Road,-79.063235,0,1,
1719,,43.82876000000001,,2,,1719,,Brock Road Northbound @ Quigley,-79.065535,0,2,
172,,43.882531,,2,,172,,Brock Street Northbound @ John,-78.943093,0,2,
1724,,43.848587,,2,,1724,,Brock Road Northbound @ Kingston,-79.07411399999998,0,1,
1729,,43.833073,,2,,1729,,Liverpool Northbound @ Pickering Parkway,-79.08913099999998,0,2,
173,,43.884079,,2,,173,,Brock Street Northbound @ Walnut,-78.943797,0,2,
1730,,43.835391,,1,,1730,,Liverpool Northbound @ Kingston,-79.090151,0,1,
1731,,43.837643,,1,,1731,,Northbound @ 1851 Liverpool,-79.09107,0,1,
1732,,43.83937800000001,,2,,1732,,Liverpool Northbound @ Glenanna,-79.091944,0,1,
1733,,43.840787,,2,,1733,,Northbound @ 1917 Liverpool,-79.092623,0,1,
1734,,43.842877,,2,,1734,,Liverpool Northbound @ Anton Square,-79.093507,0,1,
174,,43.88521,,2,,174,,Brock Street Northbound @ Chestnut,-78.944286,0,2,
1741,,43.832976,,2,,1741,,Liverpool Southbound @ Pickering Parkway,-79.089382,0,1,
1742,,43.818764,,2,,1742,,Kingston Westbound @ Whites,-79.115943,0,1,
1743,,43.821974,,2,,1743,,Whites Northbound @ Sheppard,-79.116675,0,2,
1745,,43.826169,,2,,1745,,Whites Northbound @ Briar Wood,-79.11869299999998,0,2,
1746,,43.82930600000001,,1,,1746,,Whites Northbound @ Strouds,-79.120021,0,2,
1747,,43.833399,,2,,1747,,Whites Northbound @ New,-79.121756,0,2,
1748,,43.836551,,2,,1748,,Northbound @ 1953 Whites,-79.123093,0,2,
1749,,43.838667,,2,,1749,,Whites Northbound @ Finch,-79.12405,0,2,
175,,43.886266,,2,,175,,Brock Street Northbound @ Maple,-78.94474599999998,0,2,
1751,,43.84406700000001,,2,,1751,,Whites Southbound @ Sunbird Trail,-79.126966,0,1,
1753,,43.83854,,2,,1753,,Whites Southbound @ Finch,-79.124218,0,2,
1754,,43.83660900000001,,2,,1754,,Southbound @ 1956 Whites,-79.123353,0,2,
1755,,43.83396548000001,,2,,1755,,Whites Southbound @ Highview,-79.122213,0,2,
1756,,43.829869,,2,,1756,,Whites Southbound @ Strouds (north stop),-79.120489,0,2,
1757,,43.826304,,2,,1757,,Whites Southbound @ Bayfield,-79.118976,0,1,
1759,,43.821446,,2,,1759,,Whites Southbound @ Sheppard,-79.116696,0,1,
176,,43.89055,,2,,176,,Northbound @ 807 Brock Street,-78.94666,0,1,
1760,,43.83072700000001,,2,,1760,,Bayly Eastbound @ Sandy Beach,-79.077511,0,1,
1761,,43.83155,,2,,1761,,Bayly Eastbound @ Alliance,-79.07395099999998,0,1,
1762,,43.832321,,2,,1762,,Sandy Beach Southbound @ Parkham Eastbound @ Sandy Beach,-79.070556,0,1,
1763,,43.83279628,,1,,1763,,Bayly Eastbound @ Brock Road,-79.06841759,0,1,
1764,,43.833567,,2,,1764,,Bayly Eastbound @ Toy,-79.064971,0,1,
1765,,43.8336033,,2,,1765,,Bayly Westbound @ Toy,-79.0656863,0,1,
1766,,43.832884,,1,,1766,,Bayly Westbound @ Brock Road,-79.068809,0,1,
1767,,43.8324969,,2,,1767,,Bayly Westbound @ Salk,-79.0705011,0,1,
1768,,43.83159,,2,,1768,,Bayly Westbound @ Alliance,-79.074425,0,1,
1769,,43.830956,,2,,1769,,Bayly Westbound @ Sandy Beach,-79.077296,0,1,
177,,43.89226,,1,,177,,Brock Street Northbound @ Manning,-78.94736,0,1,
1770,,43.830141,,2,,1770,,Bayly Westbound @ Krosno,-79.08112199999998,0,1,
1771,,43.82978700000001,,2,,1771,,Bayly  @ Pickering Station,-79.08286699999998,0,1,
1772,,43.82763700000001,,2,,1772,,Bayly Westbound @ St Martins,-79.092178,0,1,
1776,,43.80911600000001,,2,,1776,,Kingston Eastbound @ Rougemount,-79.129988,0,1,
1777,,43.812717,,2,,1777,,Kingston Eastbound @ Rosebank,-79.123765,0,1,
1778,,43.816824,,1,,1778,,Kingston Eastbound @ Steeple Hill,-79.11821999999998,0,1,
1779,,43.819366,,2,,1779,,Kingston Eastbound @ Whites,-79.114699,0,1,
1780,,43.82242200000001,,2,,1780,,Eastbound @ 817 Kingston,-79.110401,0,2,
1781,,43.823526,,1,,1781,,Kingston Eastbound @ Fairport,-79.1066,0,2,
1782,,43.828459,,1,,1782,,Kingston Eastbound @ Dixie,-79.098733,0,1,
1783,,43.830837,,2,,1783,,Kingston Eastbound @ Walnut,-79.096536,0,1,
1786,,43.838707,,1,,1786,,Kingston Eastbound @ Glenanna,-79.08637299999998,0,1,
1787,,43.842456,,2,,1787,,Kingston Eastbound @ Valley Farm,-79.081877,0,2,
1789,,43.84806,,1,,1789,,Kingston Eastbound @ Brock Road,-79.0734468,0,1,
179,,43.8946592,,2,,179,,Brock Street Northbound @ Wallace,-78.9483474,0,1,
1790,,43.8504078,,2,,1790,,Kingston Eastbound @ Bainbridge,-79.0700786,0,1,
1792,,43.847733,,2,,1792,,Finch Westbound @ Valley Farm,-79.085486,0,1,
18,,43.91657707,,2,,18,,Garden Northbound @ Taunton (South side stop),-78.947352,0,1,
180,,43.896874,,2,,180,,Brock Street Northbound @ Rossland,-78.949308,0,1,
181,,43.900152,,2,,181,,Brock Street Northbound @ Kenneth Hobbs,-78.950988,0,2,
182,,43.903112,,1,,182,,Brock Street Northbound @ Dryden,-78.95233,0,2,
183,,43.90666800000001,,2,,183,,Northbound @ 3603 Brock Street,-78.953906,0,2,
1832,,43.82171000000001,,2,,1832,,Southbound @ 725 Krosno,-79.08241599999998,0,1,
184,,43.908529,,1,,184,,Brock Street Northbound @ Woodlands,-78.954721,0,2,
1842,,43.8230252,,2,,1842,,Liverpool Southbound @ Haller,-79.0848981,0,1,
1846,,43.852804,,2,,1846,,Brock Road Northbound @ Usman,-79.076493,0,2,
1847,,43.854784,,1,,1847,,Brock Road Northbound @ Major Oaks,-79.077417,0,2,
1849,,43.858563,,2,,1849,,Dellbrook Westbound @ Melman,-79.08041799999998,0,1,
185,,43.91229400000001,,2,,185,,Brock Street Northbound @ Joy Thompson,-78.956318,0,2,
1852,,43.8607027,,2,,1852,,Dellbrook Westbound @ Blue Ridge (East stop),-79.0856358,0,1,
1854,,43.860264,,2,,1854,,Dellbrook Westbound @ Major Oaks,-79.089584,0,1,
1855,,43.85834100000001,,2,,1855,,Major Oaks Southbound @ Pepperwood,-79.088725,0,1,
186,,43.91494265,,2,,186,,Brock Street Northbound @ Taunton,-78.957317,0,1,
1861,,43.85219,,2,,1861,,Southbound @ 2058 Brock Road (Brock Ridge Community Park),-79.07651799999998,0,1,
1866,,43.846859,,2,,1866,,Finch Westbound @ Rosefield,-79.089437,0,1,
187,,43.91826600000001,,2,,187,,Baldwin Northbound @ Broadleaf,-78.958405,0,1,
1872,,43.84232084910814,,2,,1872,,Finch Westbound @ Duncannon,-79.10971135653655,0,2,
1873,,43.84132877809322,,2,,1873,,Finch Westbound @ Fairport,-79.11427994082172,0,2,
188,,43.922073,,2,,188,,Baldwin Northbound @ Robert Attersley,-78.960088,0,2,
1887,,43.841082,,1,,1887,,Finch Eastbound @ Fairport,-79.114864,0,2,
1888,,43.84172743428303,,2,,1888,,Finch Eastbound @ Huntsmill,-79.11170584585518,0,2,
189,,43.92549000000001,,2,,189,,Baldwin Northbound @ Sleepy Hollow,-78.961574,0,2,
1890,,43.843166,,2,,1890,,Finch Eastbound @ Dixie,-79.105023,0,2,
1894,,43.84660860000001,,2,,1894,,Finch Eastbound @ Rosefield,-79.0900957,0,1,
190,,43.935355,,2,,190,,Baldwin Northbound @ Robmar,-78.961073,0,2,
191,,43.935439,,2,,191,,Baldwin Southbound @ Robmar,-78.96117,0,2,
1915,,43.83744,,2,,1915,,Glenanna Southbound @ The Esplanade (South side stop),-79.084563,0,1,
192,,43.925998,,2,,192,,Baldwin Southbound @ Sonley,-78.962027,0,2,
1920,,43.838509,,2,,1920,,Glenanna Westbound @ Glendale,-79.093254,0,1,
1921,,43.83803000000001,,2,,1921,,Glenanna Westbound @ Bronte,-79.095309,0,1,
1922,,43.83683700000001,,2,,1922,,Glenanna Westbound @ Listowell,-79.09910499999998,0,1,
1923,,43.8364337,,2,,1923,,Glenanna Westbound @ Dixie,-79.1013673,0,1,
193,,43.922437,,2,,193,,Baldwin Southbound @ Robert Attersley (North side stop),-78.96051,0,2,
1933,,43.836731,,2,,1933,,Glenanna Eastbound @ Listowell,-79.099024,0,1,
1934,,43.83762,,2,,1934,,Glenanna Eastbound @ Bowler,-79.096622,0,1,
1935,,43.838287,,2,,1935,,Glenanna Eastbound @ Glendale,-79.09366799999998,0,1,
1936,,43.8390289,,1,,1936,,Glenanna Southbound @ Kingston,-79.0881538,0,1,
1947,,43.843901,,2,,1947,,Pickering Parkway Westbound @ Beechlawn,-79.065168,0,2,
1949,,43.8436022,,2,,1949,,Westbound @ 1738 Pickering Parkway,-79.0698917,0,2,
195,,43.918627,,2,,195,,Baldwin Southbound @ Broadleaf,-78.958862,0,1,
196,,43.9161151,,2,,196,,Baldwin Southbound @ Taunton,-78.95792659999998,0,2,
1960,,43.836906,,2,,1960,,Pickering Parkway Eastbound @ Valley Farm,-79.078013,0,2,
1961,,43.839791,,2,,1961,,Pickering Parkway Northbound @ Portland,-79.072916,0,2,
1962,,43.8413,,2,,1962,,Pickering Parkway Eastbound @ Dreyber,-79.073371,0,2,
1963,,43.84296100000001,,2,,1963,,Pickering Parkway Eastbound @ Denmar,-79.073721,0,2,
1964,,43.843629,,2,,1964,,Eastbound @ 1733 Pickering Parkway,-79.070464,0,2,
1965,,43.8431731,,2,,1965,,Eastbound @ 1755 Pickering Parkway,-79.0678524,0,2,
1966,,43.84381900000001,,2,,1966,,Pickering Parkway Eastbound @ Beechlawn,-79.065034,0,2,
197,,43.913297,,2,,197,,Southbound @ 3800 Brock Street,-78.957001,0,1,
198,,43.909126,,1,,198,,Brock Street Southbound @ Whitburn,-78.955175,0,2,
1986,,43.824687,,2,,1986,,Liverpool Southbound @ Patmore,-79.085622,0,1,
199,,43.907209,,2,,199,,Southbound @ 3626 Brock Street,-78.954297,0,2,
200,,43.903602,,1,,200,,Brock Street Southbound @ James Rowe,-78.952735,0,2,
2002,,43.823093,,2,,2002,,Liverpool Northbound @ Haller,-79.084806,0,1,
2003,,43.824917,,2,,2003,,Liverpool Northbound @ Patmore,-79.085611,0,1,
2004,,43.83507642,,2,,2004,,Bayly Eastbound @ Squires Beach,-79.05785441,0,2,
201,,43.900605,,2,,201,,Brock Street Southbound @ McCartney,-78.951449,0,2,
2015,,43.821244,,2,,2015,,Finley Southbound @ Burden,-79.022832,0,2,
2016,,43.8190999,,2,,2016,,Lake Driveway Westbound @ Finley,-79.01975093,0,2,
202,,43.897776,,2,,202,,Brock Street Southbound @ Rossland,-78.950113,0,1,
2022,,43.823774,,2,,2022,,Lake Driveway Northbound @ Hawkins,-79.034075,0,2,
2023,,43.826225,,2,,2023,,Lake Driveway Northbound @ Kipling,-79.032934,0,2,
2026,,43.83100300000001,,2,,2026,,Dreyer Eastbound @ Harwood,-79.012911,0,2,
2029,,43.830365,,2,,2029,,Clover Ridge Southbound @ Bryant,-79.003947,0,1,
203,,43.89499,,2,,203,,Brock Street Southbound @ Palmerston,-78.94865,0,1,
2030,,43.829063,,2,,2030,,Clover Ridge Southbound @ Gregory,-79.00503,0,1,
2031,,43.827273,,2,,2031,,Clover Ridge Westbound @ Crawford,-79.0073526,0,1,
2039,,43.832912,,2,,2039,,Ashbury Eastbound @ Wiseman,-78.990826,0,1,
204,,43.89251,,1,,204,,Brock Street Southbound @ Starr (North side stop),-78.94755,0,1,
2041,,43.832005,,2,,2041,,Ashbury Eastbound @ Audley,-78.985365,0,1,
2046,,43.8348382,,2,,2046,,Audley Northbound @ Handley,-78.9859383,0,1,
2050,,43.848091,,2,,2050,,Audley Northbound @ Keywood,-78.987718,0,1,
2052,,43.8419315,,2,,2052,,Monarch Southbound @ Bayly,-79.02482652,0,2,
2053,,43.839545,,2,,2053,,Monarch Southbound @ Centennial,-79.023794,0,2,
2054,,43.83624600000001,,2,,2054,,Southbound @ 556 Monarch,-79.022383,0,2,
2055,,43.834733,,2,,2055,,Monarch Southbound @ Clements,-79.021721,0,2,
2058,,43.82619600000001,,1,,2058,,Clover Ridge Westbound @ Harwood,-79.01322,0,1,
206,,43.8904162,,2,,206,,Southbound @ 814 Brock Street,-78.9467193,0,1,
2065,,43.82833209000001,,2,,2065,,Harwood Northbound @ Gorton,-79.013822,0,1,
2066,,43.83001,,2,,2066,,Northbound @ 819 Harwood,-79.014268,0,1,
2067,,43.83263,,2,,2067,,Northbound @ 721 Harwood,-79.01477,0,1,
2068,,43.836126,,1,,2068,,Northbound @ 655 Harwood,-79.014843,0,1,
2069,,43.837528,,2,,2069,,Harwood Northbound @ Emperor (Lakeridge Health Ajax Pickering),-79.01542,0,1,
207,,43.886977,,2,,207,,Brock Street Southbound @ Maple,-78.945274,0,2,
2070,,43.839992,,2,,2070,,Harwood Northbound @ Falby,-79.017956,0,2,
2072,,43.843789,,1,,2072,,Harwood Northbound @ Bayly,-79.018082,0,1,
2073,,43.846645,,1,,2073,,Harwood Northbound @ Kings Crescent (South stop),-79.019272,0,1,
2074,,43.84973200000001,,2,,2074,,Harwood Northbound @ Kings Crescent (North stop),-79.02055799999998,0,1,
2076,,43.849235,,2,,2076,,Harwood Southbound @ Kings Crescent,-79.020696,0,2,
2078,,43.844243,,1,,2078,,Harwood Southbound @ Bayly,-79.018636,0,1,
2079,,43.839809,,2,,2079,,Harwood Southbound @ Falby,-79.018227,0,1,
208,,43.884855,,2,,208,,Brock Street Southbound @ Chestnut,-78.944315,0,2,
2080,,43.83667100000001,,2,,2080,,Southbound @ 580 Harwood Avenue South (Lakeridge Health Ajax Pickering),-79.015332,0,1,
2081,,43.83498800000001,,2,,2081,,Harwood Southbound @ Clements,-79.015122,0,1,
2082,,43.83234800000001,,2,,2082,,Southbound @ 766 Harwood,-79.01500299999998,0,1,
2083,,43.831109,,1,,2083,,Harwood Southbound @ Westney,-79.014812,0,1,
2088,,43.83037,,2,,2088,,Range Line Westbound @ Mayor,-78.99327,0,2,
209,,43.883763,,2,,209,,Brock Street Southbound @ Walnut,-78.943838,0,2,
2092,,43.8317563,,1,,2092,,Pickering Beach Northbound @ Rollo (South stop),-79.0021836,0,2,
2093,,43.83484,,2,,2093,,Northbound @ 727 Pickering Beach,-79.00351499999998,0,1,
2094,,43.8365894,,2,,2094,,Pickering Beach Northbound @ Rollo (North stop),-79.0042527,0,1,
2095,,43.841101,,1,,2095,,Pickering Beach Northbound @ Howling Crescent,-79.006067,0,1,
2096,,43.84355324,,2,,2096,,Pickering Beach Northbound @ Greenhalf,-79.006018,0,1,
2097,,43.84503584,,2,,2097,,Pickering Beach Northbound @ Powers Valley,-79.00557499999998,0,1,
210,,43.882233,,2,,210,,Brock Street Southbound @ Mary,-78.94316,0,2,
211,,43.87995200000001,,1,,211,,Brock Street Southbound @ Dundas,-78.942282,0,2,
212,,43.876878,,2,,212,,Brock Street Southbound @ Gilbert,-78.941093,0,2,
213,,43.87582900000001,,2,,213,,Brock Street Southbound @ Ontario,-78.940579,0,2,
2136,,43.881794,,2,,2136,,Harwood Northbound @ Biggs,-79.02769499999998,0,1,
2137,,43.88408900000001,,2,,2137,,Harwood Northbound @ Woodcock,-79.028774,0,1,
2138,,43.885292,,2,,2138,,Harwood Westbound @ Woodcock,-79.032422,0,1,
2139,,43.8880633,,2,,2139,,Harwood Northbound @ Williamson,-79.0372909,0,1,
214,,43.873776,,2,,214,,Brock Street Southbound @ Trent,-78.939683,0,2,
2141,,43.88507983,,2,,2141,,Harwood Southbound @ Woodcock,-79.03234399999998,0,1,
2142,,43.884808,,2,,2142,,Southbound @ 1370 Harwood,-79.030202,0,1,
2143,,43.88232766,,2,,2143,,Harwood Southbound @ Biggs,-79.028197,0,1,
2144,,43.8802553,,2,,2144,,Harwood Southbound @ Rossland,-79.0273906,0,1,
2145,,43.877704,,2,,2145,,Harwood Southbound @ Fishlock,-79.026265,0,1,
2146,,43.874193,,2,,2146,,Harwood Southbound @ Hibbard,-79.024716,0,1,
2147,,43.87033000000001,,2,,2147,,Harwood Southbound @ Kerrison,-79.024269,0,1,
2148,,43.867723,,2,,2148,,Harwood Southbound @ Ringer,-79.02528,0,1,
2149,,43.86438600000001,,2,,2149,,Harwood Southbound @ Chapman,-79.026404,0,1,
215,,43.872757,,2,,215,,Southbound @ 786 Brock Street,-78.93923599999998,0,2,
2151,,43.861847,,2,,2151,,Harwood Southbound @ Kingston,-79.02633899999998,0,1,
2152,,43.858871,,2,,2152,,Harwood Southbound @ Gardiner,-79.02495999999998,0,1,
2153,,43.857094,,2,,2153,,Harwood Southbound @ Ontario,-79.024118,0,2,
2154,,43.855292,,2,,2154,,Harwood Southbound @ Brock Street,-79.023336,0,1,
2155,,43.854752,,2,,2155,,Harwood Northbound @ Oak,-79.02292199999998,0,1,
2156,,43.856625,,2,,2156,,Harwood Northbound @ Doric,-79.023745,0,1,
2157,,43.858455,,2,,2157,,Harwood Northbound @ Mandrake,-79.024518,0,1,
2158,,43.861921,,2,,2158,,Harwood Northbound @ Kingston,-79.02605,0,1,
2159,,43.863997,,2,,2159,,Harwood Northbound @ Chapman,-79.026117,0,1,
216,,43.871232,,1,,216,,Brock Street Southbound @ Burns,-78.938597,0,2,
2160,,43.867257,,2,,2160,,Harwood Northbound @ Ringer,-79.025183,0,1,
2161,,43.869841,,2,,2161,,Harwood Northbound @ Kerrison,-79.024135,0,1,
2162,,43.873823,,2,,2162,,Harwood Northbound @ Hibbard,-79.02424999999998,0,1,
2163,,43.877314,,2,,2163,,Harwood Northbound @ Fishlock,-79.025754,0,1,
2164,,43.87954400000001,,2,,2164,,Harwood Northbound @ Rossland,-79.02673,0,1,
2168,,43.87530000000001,,2,,2168,,Rossland Eastbound @ Pearce,-79.04696,0,2,
2169,,43.876463,,1,,2169,,Rossland Eastbound @ Westney,-79.04190199999998,0,1,
217,,43.8691799,,2,,217,,Brock Street Southbound @ Arthur,-78.9376805,0,2,
2171,,43.881463,,1,,2171,,Rossland Eastbound @ Salem,-79.019467,0,1,
2172,,43.883402,,1,,2172,,Rossland Eastbound @ Rushworth,-79.011115,0,1,
2173,,43.884305,,2,,2173,,Rossland Eastbound @ Hilton,-79.007262,0,2,
2174,,43.885035,,2,,2174,,Rossland Eastbound @ Audley,-79.004013,0,2,
2175,,43.887478,,2,,2175,,Rossland Eastbound @ Lake Ridge,-78.993144,0,1,
2176,,43.887606,,2,,2176,,Rossland Westbound @ Lake Ridge,-78.993369,0,1,
2177,,43.885183,,2,,2177,,Rossland Westbound @ Audley,-79.003906,0,2,
2178,,43.884465,,2,,2178,,Rossland Westbound @ Hilton,-79.007121,0,2,
2179,,43.883554,,1,,2179,,Rossland Westbound @ Rushworth,-79.01085999999998,0,2,
2182,,43.864849,,2,,2182,,Ravenscroft Northbound @ Brennan,-79.049211,0,2,
2183,,43.866904,,2,,2183,,Ravenscroft Northbound @ Matthews,-79.050094,0,2,
2184,,43.869752,,2,,2184,,Ravenscroft Northbound @ Delaney,-79.051332,0,2,
2185,,43.872168,,2,,2185,,Ravenscroft Northbound @ Hyde,-79.052373,0,2,
2204,,43.868838,,2,,2204,,Church Southbound @ Strickland,-79.061829,0,2,
2205,,43.86716,,2,,2205,,Southbound @ 570 Church,-79.061098,0,2,
2206,,43.86411300000001,,2,,2206,,Church Southbound @ Delaney,-79.059791,0,2,
2207,,43.86250900000001,,2,,2207,,Southbound @ 370 Church,-79.05909,0,2,
2208,,43.85935,,2,,2208,,Church Southbound @ Meekings,-79.057714,0,2,
2209,,43.854942,,2,,2209,,Church Southbound @ Kingston,-79.05582,0,2,
2218,,43.8648288,,2,,2218,,Kingston Eastbound @ Wicks,-79.00946,0,1,
2220,,43.866897,,2,,2220,,Kingston Eastbound @ Alexanders Crossing,-79.00020499999998,0,1,
2221,,43.867763,,2,,2221,,Kingston Eastbound @ Audley,-78.996374,0,2,
2233,,43.85324,,2,,2233,,Kingston Eastbound @ Elizabeth,-79.060413,0,2,
2234,,43.85417000000001,,1,,2234,,Eastbound @ 625 Kingston,-79.056628,0,2,
2235,,43.85603900000001,,2,,2235,,Kingston Eastbound @ Mill,-79.048411,0,2,
2236,,43.8576991,,1,,2236,,Kingston Eastbound @ Westney,-79.0409645,0,1,
2238,,43.858841,,2,,2238,,Kingston Eastbound @ Ritchie,-79.035728,0,1,
2240,,43.860433,,2,,2240,,Eastbound @ 113 Kingston,-79.028621,0,1,
2241,,43.861263,,1,,2241,,Kingston Eastbound @ Harwood,-79.025056,0,1,
2242,,43.862037,,2,,2242,,Eastbound @ 69 Kingston,-79.021604,0,1,
2244,,43.881479,,2,,2244,,Rossland Westbound @ Salem,-79.020109,0,1,
2246,,43.88795600000001,,2,,2246,,Westney Southbound @ Atherton,-79.04816599999998,0,2,
2247,,43.88526,,2,,2247,,Westney Southbound @ Williamson,-79.047031,0,2,
2248,,43.881817,,2,,2248,,Southbound @ 1328 Westney,-79.045538,0,2,
2249,,43.880069,,2,,2249,,Westney Southbound @ Telford,-79.04483999999998,0,2,
225,,43.884831,,2,,225,,Anderson Northbound @ Dundas,-78.922613,0,1,
2250,,43.877313,,2,,2250,,Westney Southbound @ Rossland (North side stop),-79.043719,0,1,
2252,,43.87696840000001,,1,,2252,,Westney Northbound @ Rossland,-79.0432136,0,1,
2253,,43.879701,,2,,2253,,Westney Northbound @ Telford,-79.044516,0,2,
2254,,43.881886,,2,,2254,,Northbound @ 1331 Westney,-79.045439,0,2,
2256,,43.88721000000001,,2,,2256,,Westney Northbound @ Curtis,-79.047648,0,2,
2257,,43.88983600000001,,2,,2257,,Northbound @ 1753 Westney,-79.048786,0,2,
2258,,43.87519152,,1,,2258,,Westney Southbound @ Rossland (South side stop),-79.042872,0,1,
2259,,43.872596,,2,,2259,,Westney Southbound @ Coughlen,-79.041717,0,1,
226,,43.886903,,2,,226,,Anderson Northbound @ Crawforth,-78.923509,0,1,
2260,,43.8698042,,2,,2260,,Westney Southbound @ Ivers,-79.04054189999998,0,1,
2261,,43.866866,,1,,2261,,Westney Southbound @ Delaney,-79.039272,0,1,
2262,,43.86482,,2,,2262,,Southbound @ 350 Westney,-79.039095,0,1,
2263,,43.8632403,,2,,2263,,Southbound @ 216 Westney,-79.0398311,0,1,
2264,,43.860608,,2,,2264,,Westney Southbound @ Millington,-79.041014,0,2,
2265,,43.857804,,2,,2265,,Westney Southbound @ Kingston (North side stop),-79.041983,0,1,
2266,,43.854027,,2,,2266,,Westney Southbound @ Bramwell,-79.041345,0,1,
2268,,43.846828,,2,,2268,,Westney Southbound @ Fairall,-79.03957,0,1,
2269,,43.8434567,,2,,2269,,Westney Southbound @ O'Brien,-79.03655988,0,1,
227,,43.890994,,2,,227,,Anderson Northbound @ Frederick,-78.925314,0,1,
2270,,43.84046,,2,,2270,,Westney Southbound @ Bayly,-79.035459,0,1,
2276,,43.83075500000001,,2,,2276,,Westney Eastbound @ Harwood,-79.016374,0,2,
2277,,43.831821,,2,,2277,,Westney Northbound @ Clements,-79.032781,0,2,
228,,43.892564,,2,,228,,Anderson Northbound @ Maplewood,-78.925967,0,1,
2280,,43.8412546,,2,,2280,,Westney Northbound @ Bayly (North side stop),-79.0353224,0,1,
2281,,43.843068,,2,,2281,,Westney Northbound @ O'Brien,-79.036025,0,1,
2282,,43.853799,,2,,2282,,Westney Northbound @ Ritchie,-79.041066,0,1,
2283,,43.85724787,,2,,2283,,Westney Northbound @ Kingston,-79.04155679,0,1,
2285,,43.861546,,2,,2285,,Westney Northbound @ Ravenscroft,-79.040329,0,1,
2286,,43.866181,,1,,2286,,Westney Northbound @ Magill,-79.038754,0,1,
2287,,43.87030193,,2,,2287,,Westney Northbound @ Ivers,-79.040561,0,1,
2288,,43.8737626,,2,,2288,,Westney Northbound @ Sullivan,-79.04188859999998,0,1,
2298,,43.827964,,2,,2298,,Liverpool Northbound @ Bayly,-79.086894,0,2,
2299,,43.83746702,,1,,2299,,Bayly Eastbound @ Church,-79.04730836,0,1,
2300,,43.840287,,2,,2300,,Bayly Eastbound @ Westney,-79.03458,0,1,
2301,,43.841093,,2,,2301,,Bayly Eastbound @ Finley,-79.030872,0,1,
2302,,43.841851,,2,,2302,,Bayly Eastbound @ Mackenzie,-79.02756599999998,0,1,
2303,,43.8423437,,2,,2303,,Bayly Eastbound @ Monarch,-79.025254,0,1,
2304,,43.842726,,2,,2304,,Bayly Eastbound @ Woodchester,-79.02351899999998,0,2,
2305,,43.84332238201808,,2,,2305,,Bayly Eastbound @ Kitney,-79.02102331,0,1,
2307,,43.845278,,2,,2307,,Bayly Eastbound @ Burcher,-79.012218,0,1,
2308,,43.846033,,2,,2308,,Bayly Eastbound @ Porte,-79.009096,0,1,
2309,,43.846502,,1,,2309,,Bayly Eastbound @ Pickering Beach,-79.006585,0,1,
2310,,43.848164,,2,,2310,,Bayly Eastbound @ Shoal Point,-78.99917499999998,0,2,
2311,,43.84862720000001,,2,,2311,,Bayly Westbound @ Shoal Point,-78.99802099999998,0,1,
2312,,43.847892,,2,,2312,,Bayly Westbound @ Boone,-79.00124,0,1,
2313,,43.846629,,1,,2313,,Bayly Westbound @ Salem,-79.007018,0,2,
2314,,43.846159,,2,,2314,,Bayly Westbound @ Porte,-79.009124,0,1,
2315,,43.845625,,2,,2315,,Bayly Westbound @ Burcher,-79.01148499999998,0,1,
2316,,43.844242,,1,,2316,,Bayly Westbound @ Harwood,-79.017732,0,2,
2317,,43.843703,,2,,2317,,Bayly Westbound @ Commercial,-79.020186,0,1,
2318,,43.843281,,2,,2318,,Bayly Westbound @ Woodchester,-79.021975,0,1,
2319,,43.842681,,2,,2319,,Bayly Westbound @ Monarch,-79.024703,0,1,
2320,,43.8419865,,2,,2320,,Bayly Westbound @ Mackenzie,-79.0278284,0,1,
2321,,43.84141000000001,,2,,2321,,Bayly Westbound @ Finley,-79.030484,0,1,
2322,,43.840417,,2,,2322,,Bayly Westbound @ Westney,-79.035039,0,1,
2323,,43.83537,,2,,2323,,Bayly Westbound @ Squires Beach,-79.05759999999998,0,2,
2324,,43.83755071,,1,,2324,,Bayly Westbound @ Church,-79.04777984,0,1,
2326,,43.84675350879057,,2,,2326,,Hunt Westbound @ Mills,-79.02333478682516,0,2,
2328,,43.848622,,2,,2328,,Fairall Westbound @ Dowty,-79.030842,0,1,
2329,,43.847858,,2,,2329,,Fairall Westbound @ McMaster,-79.034274,0,1,
2330,,43.84696000000001,,2,,2330,,Fairall Westbound @ Westney,-79.038432,0,1,
2331,,43.8469093,,2,,2331,,Fairall Eastbound @ Westney (East side stop),-79.0381401,0,1,
2332,,43.847784,,2,,2332,,Fairall Eastbound @ McMaster,-79.034135,0,1,
2333,,43.8488203,,2,,2333,,Fairall Eastbound @ Dowty,-79.0293951,0,1,
2335,,43.84718321812876,,2,,2335,,Hunt Eastbound @ Harwood,-79.0209055885104,0,2,
2351,,43.850729,,2,,2351,,Eastbound @ 87 Station,-79.024869,0,2,
2352,,43.85141200000001,,2,,2352,,Station Eastbound @ Harwood,-79.021846,0,2,
2398,,43.896029,,2,,2398,,Eastbound @ 43 Taunton,-79.038914,0,1,
2399,,43.896906,,2,,2399,,Taunton Eastbound @ Middlecote,-79.034803,0,1,
2400,,43.897731,,1,,2400,,Taunton Eastbound @ Salem,-79.0312632,0,1,
2401,,43.8993868,,2,,2401,,Taunton Eastbound @ Gillett,-79.0245374,0,2,
2402,,43.901133,,1,,2402,,Taunton Eastbound @ Warner,-79.017127,0,2,
2403,,43.902546,,2,,2403,,Taunton Eastbound @ Audley,-79.011461,0,1,
2404,,43.90267,,2,,2404,,Taunton Westbound @ Audley,-79.011878,0,2,
2405,,43.9015153,,1,,2405,,Taunton Westbound @ Warner,-79.01660699999998,0,2,
2406,,43.8979268,,1,,2406,,Taunton Westbound @ Salem,-79.0315523,0,2,
2407,,43.8972765,,2,,2407,,Taunton Westbound @ Middlecote,-79.0342846,0,2,
2416,,44.087782,,2,,2416,,Eastbound @ 6 Welwood,-79.1330801,0,2,
2417,,44.089648,,2,,2417,,Plaza Northbound @ Welwood,-79.131489,0,2,
2418,,44.09199000000001,,2,,2418,,Toronto Northbound @ Douglas,-79.132073,0,1,
2419,,44.097727,,2,,2419,,Toronto Northbound @ Elgin Park,-79.12808,0,1,
2420,,44.101583,,2,,2420,,Toronto Northbound @ Campbell,-79.125598,0,1,
2421,,44.106913,,2,,2421,,Toronto Northbound @ Poplar,-79.123332,0,1,
2422,,44.109303,,2,,2422,,Toronto Northbound @ Brock Street (North side stop),-79.122461,0,1,
2424,,44.10911,,2,,2424,,Toronto Street Southbound @ Brock Street,-79.122648,0,2,
2425,,44.105762,,2,,2425,,Toronto Southbound @ Peel,-79.124135,0,1,
2426,,44.104382,,2,,2426,,Toronto Southbound @ Mill,-79.124941,0,1,
2427,,44.102555,,2,,2427,,Toronto Southbound @ Campbell,-79.125703,0,2,
2428,,44.104907,,2,,2428,,Reach Eastbound @ East,-79.113612,0,1,
2429,,44.104684,,2,,2429,,Reach Eastbound @ Hamilton,-79.111752,0,1,
2430,,44.104464,,2,,2430,,Reach Eastbound @ Testa,-79.109229,0,1,
2431,,44.104497,,2,,2431,,Reach Northbound @ Coral Creek,-79.108006,0,1,
2433,,44.106913,,2,,2433,,Franklin Northbound @ Parkside,-79.115832,0,1,
2434,,44.109968,,2,,2434,,Franklin Northbound @ Brock Street,-79.117222,0,2,
2436,,44.09739900000001,,2,,2436,,Toronto Southbound @ Elgin Park,-79.128533,0,1,
2437,,44.10394500000001,,2,,2437,,Toronto Northbound @ Mill,-79.12506,0,1,
2438,,44.107718,,2,,2438,,Toronto Southbound @ Brock Street (South side stop),-79.123036,0,1,
2441,,44.10972000000001,,2,,2441,,Franklin Southbound @ Brock Street,-79.11723499999998,0,1,
2442,,44.107774,,2,,2442,,Southbound @ 72 Franklin,-79.116345,0,1,
2443,,44.109472,,2,,2443,,Brock Street Westbound @ Main Street,-79.12032499999998,0,1,
2444,,44.093705,,2,,2444,,Reach Westbound @ Marsh Hill (Epsom),-79.035732,0,2,
2445,,44.093585,,2,,2445,,Reach Eastbound @ Marsh Hill (Epsom),-79.035966,0,2,
2446,,44.104969,,2,,2446,,Reach Eastbound @ Reach Industrial Park,-78.985241,0,2,
2447,,44.105095,,2,,2447,,Reach Westbound @ Reach Industrial Park,-78.98500799999998,0,2,
2448,,44.106497,,2,,2448,,Reach Eastbound @ North Port,-78.978346,0,2,
2449,,44.106635,,2,,2449,,Reach Westbound @ North Port,-78.977997,0,2,
245,,43.917513,,2,,245,,Anderson Southbound @ Kilbride,-78.937106,0,1,
2450,,44.110073,,2,,2450,,Reach Eastbound @ Sherrington,-78.961905,0,1,
2451,,44.110199,,2,,2451,,Reach Westbound @ Sherrington,-78.961945,0,2,
2452,,44.11102600000001,,2,,2452,,Reach Eastbound @ Old Simcoe,-78.957515,0,2,
2453,,44.1122,,2,,2453,,Reach Eastbound @ Simcoe,-78.951756,0,1,
2454,,44.112316,,2,,2454,,Reach Westbound @ Simcoe,-78.951684,0,2,
2455,,44.111107,,2,,2455,,Reach Westbound @ Old Simcoe,-78.957656,0,2,
2456,,43.979501,,2,,2456,,Simcoe Northbound @ Steepleview (Columbus),-78.91001199999998,0,2,
2457,,43.982318,,2,,2457,,Simcoe Northbound @ Columbus Road (Columbus),-78.911266,0,2,
2458,,43.982203,,2,,2458,,Simcoe Southbound @ Columbus Road (Columbus),-78.911351,0,2,
2459,,43.979472,,2,,2459,,Simcoe Southbound @ Westview (Columbus),-78.910124,0,2,
246,,43.915405,,2,,246,,Anderson Southbound @ Darren,-78.936222,0,2,
2462,,44.017775,,2,,2462,,Simcoe Northbound @ Raglan Road (Raglan),-78.925672,0,2,
2463,,44.024868,,2,,2463,,Simcoe Northbound @ Snow Ridge,-78.924563,0,2,
2464,,44.024706,,2,,2464,,Simcoe Southbound @ Snow Ridge,-78.92478199999998,0,2,
2465,,44.018378,,2,,2465,,Simcoe Southbound @ Raglan Road (Raglan),-78.925944,0,2,
2473,,44.08405984,,2,,2473,,King Westbound @ Old Simcoe,-78.95354168,0,2,
2475,,44.089871,,2,,2475,,Old Simcoe Northbound @ Jeffrey,-78.955184,0,1,
2476,,44.090628,,2,,2476,,Old Simcoe Southbound @ Jeffrey,-78.955344,0,2,
2478,,44.083946,,2,,2478,,King Eastbound @ Old Simcoe,-78.953711,0,1,
2491,,44.10227900000001,,1,,2491,,Curts Eastbound @ Port Perry Terminal,-78.938356,0,1,
2500,,44.110346,,2,,2500,,Simcoe Southbound @ Kellett,-78.950117,0,1,
2501,,44.107337,,2,,2501,,Simcoe Southbound @ Balsam,-78.94889,0,1,
2503,,44.099916,,2,,2503,,Scugog  Westbound @ Simcoe,-78.945102,0,2,
2505,,44.09877,,2,,2505,,Scugog Westbound @ Ottawa,-78.950789,0,1,
2506,,44.097862,,2,,2506,,Scugog Westbound @ Old Simcoe,-78.955178,0,2,
2509,,44.09774800000001,,2,,2509,,Scugog Eastbound @ Old Simcoe,-78.955305,0,2,
2510,,44.098585,,2,,2510,,Scugog Eastbound @ Ottawa,-78.951258,0,2,
2512,,44.099892,,2,,2512,,Scugog Eastbound @ Simcoe,-78.944804,0,2,
2514,,44.107457,,2,,2514,,Simcoe Northbound @ Balsam,-78.948792,0,2,
2515,,44.110223,,2,,2515,,Simcoe Northbound @ Beech,-78.95,0,2,
2516,,44.096969,,2,,2516,,Old Simcoe Southbound @ Scugog Street,-78.95578399999998,0,2,
2517,,44.093814,,2,,2517,,Old Simcoe Southbound @ Victoria,-78.955567,0,2,
2549,,43.831147,,1,,2549,,Pickering Station,-79.084237,0,1,
255,,43.89454,,2,,255,,Anderson Southbound @ Manning,-78.927052,0,1,
256,,43.892471,,2,,256,,Anderson Southbound @ Maplewood,-78.926119,0,1,
2569,,43.847679,,1,,2569,,Ajax Station,-79.041346,0,1,
257,,43.890386,,2,,257,,Anderson Southbound @ Bradley,-78.925223,0,1,
2574,,43.846447,,2,,2574,,Fairall Eastbound @ Westney (West side stop),-79.039484,0,1,
2576,,43.865496,,1,,2576,,Whitby Station,-78.93794,0,1,
258,,43.886829,,2,,258,,Anderson Southbound @ Crawforth,-78.923657,0,1,
2585,,43.87066200000001,,2,,2585,,Oshawa Station,-78.886365,0,1,
259,,43.8851472,,2,,259,,Anderson Southbound @ Dundas,-78.9229176,0,2,
2595,,43.88916900000001,,2,,2595,,Oshawa Centre Terminal,-78.877279,0,1,
260,,43.867601,,2,,260,,Consumers Eastbound @ Paisley,-78.93573499999998,0,2,
2603,,43.89714,,1,,2603,,King Eastbound @ Centre,-78.86528199999998,0,2,
2604,,43.89014370000001,,2,,2604,,Gibb Westbound @ Centre,-78.8622203,0,1,
261,,43.867911,,2,,261,,Eastbound @ 187 Consumers,-78.93228,0,1,
262,,43.86729177,,1,,262,,Westbound @ 1716 Victoria,-78.900295,0,1,
265,,43.86166688,,2,,265,,Wentworth Westbound @ Boundary (West side stop),-78.88778,0,2,
266,,43.860563,,2,,266,,Wentworth Westbound @ Forbes,-78.89276099999998,0,2,
267,,43.859508,,2,,267,,Wentworth Westbound @ Scotia,-78.897536,0,2,
268,,43.859,,2,,268,,Thickson Northbound @ Wentworth,-78.9007,0,1,
269,,43.86266,,2,,269,,Thickson Northbound @ Tricont,-78.902289,0,2,
270,,43.865547,,2,,270,,Thickson Northbound @ Victoria,-78.903392,0,2,
2704,,43.908291,,1,,2704,,Taunton Westbound @ Coronation,-78.987629,0,2,
2705,,43.908217,,1,,2705,,Taunton Eastbound @ Coronation,-78.986958,0,2,
2707,,43.910014,,1,,2707,,Taunton Westbound @ Baycliff,-78.980509,0,2,
2708,,43.89974380000001,,2,,2708,,Taunton Westbound @ Gillett,-79.0239972,0,2,
2709,,43.882318,,2,,2709,,Bloor Eastbound @ Ritson,-78.846976,0,2,
2712,,43.947746,,2,,2712,,Simcoe Northbound @ Conlin,-78.895601,0,1,
2713,,43.91836021000001,,2,,2713,,Taunton Westbound @ Fallingbrook,-78.944325,0,1,
2718,,43.847742,,2,,2718,,Bayly Eastbound @ Boone,-79.001192,0,1,
272,,43.877058,,2,,272,,Thickson Northbound @ Burns,-78.908542,0,2,
2720,,43.85655100000001,,2,,2720,,Church Southbound @ Sherwood,-79.056518,0,2,
2729,,43.895089,,2,,2729,,Taunton Eastbound @ Harwood,-79.042882,0,1,
2730,,43.8952726,,2,,2730,,Taunton Westbound @ Harwood,-79.0431068,0,2,
2733,,44.09167138,,2,,2733,,Simcoe Northbound @ Greenway,-78.94143037,0,1,
2734,,44.09453,,2,,2734,,Simcoe Northbound @ Vanedward,-78.942667,0,1,
2735,,44.094332,,2,,2735,,Union Southbound @ Major,-78.947175,0,2,
2737,,44.0911351,,2,,2737,,Union Southbound @ Robin Trail,-78.94854315,0,2,
2739,,44.08454,,2,,2739,,King Westbound @ Union,-78.95111799999998,0,2,
274,,43.88211600000001,,2,,274,,Thickson Northbound @ Nichol,-78.910842,0,2,
2740,,44.085418,,2,,2740,,Union Northbound @ Hurd,-78.9509,0,1,
2741,,44.09017,,2,,2741,,Union Northbound @ Josephine,-78.948845,0,1,
2743,,44.094297,,2,,2743,,Union Northbound @ Major,-78.947064,0,1,
2744,,44.094828,,2,,2744,,Simcoe Southbound @ Vanedward,-78.94307499999998,0,1,
2745,,44.09201925,,2,,2745,,Simcoe Southbound @ Greenway,-78.94179818,0,1,
2749,,44.111357,,2,,2749,,Northbound @ 15929 Simcoe St,-78.950491,0,1,
275,,43.884288,,2,,275,,Northbound @ 35 Thickson,-78.911801,0,1,
276,,43.88712300000001,,2,,276,,Thickson Northbound @ Dundas,-78.912944,0,1,
277,,43.88843361,,2,,277,,Thickson Northbound @ Crawforth,-78.91350799999998,0,1,
278,,43.89153000000001,,2,,278,,Thickson Northbound @ Pine Hills,-78.914804,0,1,
279,,43.893721,,2,,279,,Thickson Northbound @ Dalton,-78.915756,0,1,
28,,43.902996,,2,,28,,Garden Southbound @ Kenneth Hobbs,-78.941649,0,1,
281,,43.899509,,2,,281,,Thickson Northbound @ Canadian Oaks,-78.918233,0,1,
283,,43.903729,,2,,283,,Thickson Northbound @ Rossland (South Side Stop),-78.92006499999998,0,1,
29,,43.901353,,2,,29,,Southbound @ 3088 Garden,-78.940938,0,1,
290,,43.916314,,2,,290,,Thickson Northbound @ Bach,-78.925599,0,1,
292,,43.919129,,2,,292,,Thickson Northbound @ Cathedral,-78.9267847,0,2,
293,,43.92320500000001,,2,,293,,Garrard Southbound @ Griffen,-78.917972,0,1,
294,,43.921498,,2,,294,,Garrard Southbound @ Shore,-78.917227,0,1,
295,,43.917352,,2,,295,,Garrard Southbound @ Dryden,-78.91538799999998,0,1,
296,,43.914403,,2,,296,,Garrard Southbound @ Rolling Acres,-78.914092,0,1,
297,,43.9121379,,2,,297,,Garrard Southbound @ Donald Wilson,-78.9130924,0,1,
298,,43.910044,,2,,298,,Garrard Southbound @ Fencerow,-78.912156,0,1,
30,,43.898752,,2,,30,,Garden Southbound @ Rossland (Durham Region Headquarters),-78.93967,0,1,
300,,43.905952,,2,,300,,Garrard Southbound @ Rossland,-78.910619,0,1,
3001,,43.820346,,2,,3001,,Waterford Westbound @ Woodview,-79.144548,0,2,
3004,,43.820443,,2,,3004,,Waterford Eastbound @ Forestview,-79.140253,0,1,
3014,,43.86326600000001,,2,,3014,,Ravenscroft Northbound @ Daniels,-79.046606,0,2,
302,,43.90280914,,2,,302,,Garrard Southbound @ Parkview,-78.90922,0,1,
303,,43.899855,,2,,303,,Garrard Southbound @ Gadsby,-78.907942,0,1,
3038,,43.88831017,,2,,3038,,Salem Southbound @ Thackery,-79.026786,0,2,
3039,,43.888491,,2,,3039,,Salem Northbound @ Gillett,-79.026599,0,2,
304,,43.89760603,,2,,304,,Garrard Southbound @ Manning,-78.906976,0,1,
3041,,43.88440700000001,,2,,3041,,Salem Northbound @ Harper Hill,-79.021938,0,2,
3042,,43.88210500000001,,1,,3042,,Salem Southbound @ Rossland,-79.019056,0,2,
3043,,43.881461,,2,,3043,,Salem Northbound @ Rossland,-79.018414,0,2,
3044,,43.893784,,2,,3044,,Williamson Eastbound @ Kirk,-79.026951,0,1,
3045,,43.894659,,2,,3045,,Williamson Westbound @ Sergeant,-79.026201,0,1,
3048,,43.846466,,1,,3048,,Pickering Beach Northbound @ Bayly,-79.005762,0,1,
3049,,43.849311,,2,,3049,,Salem Northbound @ Lord,-79.006791,0,2,
3052,,43.849663,,2,,3052,,Salem Southbound @ Lord,-79.007221,0,2,
3053,,43.84686809732681,,1,,3053,,Salem Southbound @ Bayly,-79.00620876374902,0,2,
3054,,43.84421074545585,,2,,3054,,Pickering Beach Southbound @ Michaelman,-79.00602185445216,0,2,
3055,,43.842824,,2,,3055,,Pickering Beach Southbound @ Hickman,-79.00649,0,2,
3056,,43.840676,,1,,3056,,Pickering Beach Southbound @ Emperor,-79.006118,0,1,
3057,,43.837128,,2,,3057,,Pickering Beach Southbound @ Foord,-79.004638,0,2,
3058,,43.834673,,2,,3058,,Southbound @ 722 Pickering Beach,-79.003576,0,2,
3059,,43.831646,,1,,3059,,Pickering Beach Southbound @ Rollo,-79.00228199999998,0,1,
3060,,43.8495633,,2,,3060,,Eastbound @ 509 Bayly,-78.9927232,0,2,
3061,,43.850332,,1,,3061,,Bayly Eastbound @ Audley,-78.989176,0,1,
3062,,43.848222,,2,,3062,,Audley Southbound @ Keywood,-78.987917,0,2,
3063,,43.84292,,2,,3063,,Audley Southbound @ Sharplin,-78.986321,0,2,
3064,,43.836116,,2,,3064,,Audley Southbound @ Holloway,-78.986706,0,2,
3066,,43.832312,,2,,3066,,Audley Southbound @ Ashbury,-78.985326,0,1,
3067,,43.83294,,2,,3067,,Ashbury Westbound @ Shoal Point,-78.991383,0,2,
3068,,43.828856,,2,,3068,,Range Line Eastbound @ Poplar,-78.99938,0,2,
3074,,43.828777,,1,,3074,,Lake Driveway Westbound @ Westney,-79.032817,0,2,
3075,,43.826381,,2,,3075,,Lake Driveway Southbound @ Vale,-79.033125,0,2,
3076,,43.823696,,2,,3076,,Lake Driveway Southbound @ Hawkins,-79.034343,0,2,
3080,,43.821367,,2,,3080,,Finley Northbound @ Burden,-79.022861,0,2,
3083,,43.828548,,2,,3083,,Harwood Southbound @ Windebanks,-79.014208,0,2,
3085,,43.8271,,2,,3085,,Clover Ridge Eastbound @ Crawford,-79.00769,0,2,
3086,,43.829813,,2,,3086,,Clover Ridge Eastbound @ Clarke,-79.00429099999998,0,2,
3089,,43.83109300000001,,2,,3089,,Dreyer Westbound @ Harwood,-79.014244,0,2,
309,,43.8948175,,2,,309,,Thickson Northbound @ Manning,-78.91623869999998,0,1,
3096,,43.836801,,2,,3096,,Northbound @ 574 Monarch,-79.022498,0,2,
3097,,43.84052,,2,,3097,,Monarch Northbound @ Tragunna,-79.02412,0,2,
31,,43.896968,,2,,31,,Garden Southbound @ Bassett,-78.938877,0,1,
310,,43.893474,,2,,310,,Thickson Southbound @ Dalton,-78.915889,0,1,
3105,,43.858814,,2,,3105,,Victoria Eastbound @ Bayside Gate,-78.950286,0,2,
3106,,43.911379,,2,,3106,,Thickson Northbound @ Fieldnest,-78.92341399999998,0,1,
3107,,43.913835,,2,,3107,,Thickson Northbound @ Dryden,-78.924456,0,1,
3109,,43.883063,,2,,3109,,Ritson Southbound @ Bloor,-78.84632,0,2,
311,,43.89187877,,2,,311,,Thickson Southbound @ Pine Hills,-78.915149,0,1,
3110,,43.87956,,2,,3110,,Ritson Southbound @ Conant,-78.844802,0,1,
3113,,43.87933000000001,,2,,3113,,Colonel Sam Westbound @ Farewell,-78.82801,0,2,
3114,,43.88279606653353,,1,,3114,,Farewell Northbound @ Raleigh,-78.82968003226307,0,2,
3115,,43.9039406,,2,,3115,,Southbound @ 206 Ritson,-78.8557913,0,2,
3116,,43.904205,,2,,3116,,Northbound @ 205 Ritson,-78.855635,0,2,
3117,,43.901042,,2,,3117,,Ritson Southbound @ Bond,-78.854433,0,2,
3118,,43.901499,,2,,3118,,Ritson Northbound @ Richmond,-78.854417,0,2,
312,,43.88874243,,2,,312,,Thickson Southbound @ Crawforth,-78.91385,0,1,
3123,,43.909548,,2,,3123,,Wilson Southbound @ Adelaide,-78.847296,0,2,
3125,,43.91355036312938,,2,,3125,,Wilson Southbound @ Hillcroft,-78.84907667343516,0,2,
3126,,43.913236,,2,,3126,,Wilson Northbound @ Hillcroft,-78.848778,0,1,
3127,,43.956275,,2,,3127,,Britannia Eastbound @ Steeplechase,-78.896619,0,1,
3128,,43.955878,,2,,3128,,Britannia Eastbound @ Bridle,-78.893451,0,2,
313,,43.88721867000001,,2,,313,,Thickson Southbound @ Dundas,-78.913195,0,1,
3132,,43.95665300000001,,2,,3132,,Conlin Eastbound @ Harmony,-78.857426,0,2,
3133,,43.95607300000001,,2,,3133,,Grandview Southbound @ Woodstream,-78.846023,0,2,
3134,,43.95001100000001,,2,,3134,,Grandview Southbound @ Salmers,-78.843457,0,2,
3135,,43.949878,,2,,3135,,Grandview Northbound @ Salmers,-78.843025,0,2,
3136,,43.955852,,2,,3136,,Grandview Northbound @ Woodstream,-78.845803,0,2,
3137,,43.956986,,2,,3137,,Conlin Westbound @ Harmony,-78.856803,0,2,
314,,43.884433,,2,,314,,Southbound @ 44 Thickson,-78.912122,0,1,
3141,,43.89572350000001,,2,,3141,,Baseline Westbound @ West Side Drive,-78.6998376,0,2,
3143,,43.9026426,,2,,3143,,Aspen Springs Eastbound @ West Side Drive,-78.7064451,0,2,
3144,,43.9051647,,2,,3144,,Aspen Springs Eastbound @ Fry,-78.7032401,0,2,
3145,,43.897686,,2,,3145,,Green Northbound @ Remmington,-78.706956,0,2,
3149,,43.91361100000001,,2,,3149,,Liberty Northbound @ Wellington,-78.681484,0,2,
315,,43.882767,,2,,315,,Thickson Southbound @ Nichol,-78.911373,0,1,
3150,,43.917844,,2,,3150,,Liberty Northbound @ Concession,-78.683319,0,1,
3151,,43.91926500000001,,2,,3151,,Concession Eastbound @ Trudeau,-78.678888,0,1,
3154,,43.93118,,2,,3154,,Longworth Westbound @ Swindells,-78.685434,0,1,
3155,,43.93182190000001,,2,,3155,,Liberty Northbound @ Freeland,-78.6893809,0,1,
316,,43.879377,,2,,316,,Thickson Southbound @ Long,-78.909859,0,1,
3161,,43.921138,,2,,3161,,Mearns Northbound @ Concession,-78.673813,0,1,
3163,,43.909994,,2,,3163,,Green Northbound @ Highway 2 (North side stop),-78.712264,0,1,
3165,,43.90821300000001,,2,,3165,,Green Southbound @ South Of Highway 2,-78.711662,0,2,
3167,,43.904744,,2,,3167,,Bowmanville Ave Southbound @ Hartwell,-78.699429,0,2,
317,,43.87764539,,2,,317,,Thickson Southbound @ Burns,-78.908946,0,1,
3170,,43.895232,,2,,3170,,Baseline Westbound @ Millburn,-78.702278,0,2,
3172,,43.905223,,2,,3172,,Green Southbound @ Boswell,-78.710404,0,1,
3173,,43.930322,,2,,3173,,Longworth Westbound @ Liberty,-78.688411,0,1,
3178,,43.925753,,2,,3178,,Wilson Northbound @ Attersley,-78.854111,0,1,
3179,,43.926015,,2,,3179,,Wilson Southbound @ Attersley,-78.854372,0,1,
318,,43.86262,,2,,318,,Thickson Southbound @ Tricont,-78.902447,0,2,
319,,43.858818,,2,,319,,Wentworth Eastbound @ Thickson,-78.899945,0,2,
320,,43.859341,,2,,320,,Wentworth Eastbound @ McEwen,-78.897457,0,2,
321,,43.8723866,,2,,321,,Consumers Westbound @ Thickson,-78.9078341,0,1,
322,,43.870879,,2,,322,,Consumers Westbound @ Sunray,-78.91304599999998,0,1,
3224,,44.10559400000001,,2,,3224,,Franklin Northbound @ Reach,-79.115221,0,1,
3227,,43.889102,,2,,3227,,Gibb Westbound @ Nassau,-78.866981,0,2,
3228,,43.888869,,2,,3228,,Gibb Eastbound @ Nassau,-78.86772,0,2,
3229,,43.855437,,2,,3229,,Church Northbound @ Sherwood,-79.055896,0,2,
323,,43.870194,,2,,323,,Consumers Westbound @ Hopkins,-78.915887,0,2,
3231,,43.830787,,1,,3231,,Harwood Northbound @ Dreyer,-79.014381,0,2,
3249,,43.924495,,2,,3249,,Mearns Northbound @ Apple Blossom,-78.675239,0,1,
3250,,43.928385,,2,,3250,,Mearns Northbound @ Sprucewood,-78.676991,0,1,
3251,,43.93205600000001,,2,,3251,,Longworth Westbound @ Rickaby,-78.682305,0,1,
3253,,43.82622,,1,,3253,,Clover Ridge Eastbound @ Andrea,-79.012367,0,1,
326,,43.8689872,,2,,326,,Consumers Westbound @ Cannon,-78.9237719,0,1,
3262,,43.887869,,2,,3262,,Dean Westbound @ Wilson,-78.83800599999998,0,2,
3263,,43.888306,,2,,3263,,Dean Northbound @ Sedan,-78.841289,0,2,
3265,,43.85314000000001,,2,,3265,,Salem Northbound @ Achilles,-79.009521,0,2,
3266,,43.85275219675408,,2,,3266,,Salem Southbound @ Achilles,-79.00961840932924,0,2,
3269,,43.930147,,2,,3269,,Ritson Northbound @ Beatrice (North stop),-78.866844,0,2,
327,,43.8682969,,2,,327,,Consumers Westbound @ Garden,-78.9286565,0,1,
3270,,43.93206,,2,,3270,,Ritson Northbound @ Pentland,-78.867734,0,1,
3271,,43.934727,,1,,3271,,Ritson Northbound @ Taunton,-78.868826,0,1,
3277,,43.901872,,2,,3277,,Liberty Northbound @ Baseline,-78.676347,0,2,
3278,,43.90737,,2,,3278,,Liberty Northbound @ Jane,-78.67878,0,2,
3279,,43.909304,,2,,3279,,Prince Eastbound @ Simpson,-78.674384,0,1,
328,,43.868088,,2,,328,,Westbound @ 180 Consumers,-78.931766,0,1,
329,,43.868016,,2,,329,,Consumers Westbound @ Paisley,-78.934571,0,1,
3294,,43.87746400000001,,2,,3294,,Rossland Westbound @ Seggar,-79.03796199999998,0,1,
3295,,43.877187,,2,,3295,,Rossland Eastbound @ Seggar,-79.038698,0,1,
3296,,43.87213100000001,,2,,3296,,Rossland Westbound @ Harkins,-79.058372,0,2,
330,,43.86800980000001,,2,,330,,Consumers Eastbound @ Garden,-78.929162,0,1,
3300,,44.094684,,2,,3300,,Highway 7A Westbound @ SmartCentres Port Perry,-78.965222,0,2,
3302,,43.878356,,2,,3302,,Rossland Eastbound @ Woodcock,-79.0334,0,2,
3314,,43.8796476,,2,,3314,,Rossland Eastbound @ Harwood,-79.0275635,0,1,
3315,,43.880023,,2,,3315,,Rossland Westbound @ Harwood,-79.026765,0,1,
332,,43.868802,,2,,332,,Consumers Eastbound @ Cannon,-78.924038,0,1,
3322,,43.8568676,,2,,3322,,Westney Southbound @ Kingston (South side stop),-79.0418045,0,1,
3339,,44.10364003,,2,,3339,,Simcoe Southbound @ Queen,-78.94730861,0,2,
334,,43.86960100000001,,2,,334,,Eastbound @ 107 Consumers,-78.91860699999998,0,1,
3340,,44.10351827820833,,2,,3340,,Simcoe Northbound @ Queen,-78.94709667801564,0,1,
3341,,43.9226613,,2,,3341,,Wilson Northbound @ Terrace,-78.852739,0,2,
3342,,43.922588,,2,,3342,,Wilson Southbound @ Terrace,-78.85286499999998,0,2,
3343,,43.929131,,2,,3343,,Wilson Northbound @ Tiffany,-78.8556,0,2,
3344,,43.92931,,2,,3344,,Wilson Southbound @ Tiffany,-78.855818,0,2,
3345,,43.8967609,,2,,3345,,Baseline Westbound @ Martin,-78.6952935,0,2,
3346,,43.9087386,,2,,3346,,Green Northbound @ Highway 2 (South side stop),-78.711744,0,2,
3347,,43.9129222,,2,,3347,,Clarington Boulevard Southbound @ Stevens,-78.7090942,0,1,
335,,43.87071339196998,,2,,335,,Consumers Eastbound @ Sunray,-78.9128184418275,0,1,
3366,,43.95470000000001,,2,,3366,,Britannia Westbound @ Kentucky Derby,-78.905928,0,2,
3367,,43.85522000000001,,1,,3367,,Brock Road Southbound @ Major Oaks,-79.077861,0,2,
3368,,43.874489,,1,,3368,,Brock Road Southbound @ Dersan,-79.085714,0,1,
337,,43.872706,,2,,337,,Stellar Eastbound @ Thickson,-78.905592,0,1,
339,,43.871161,,2,,339,,Durham College Whitby Campus,-78.900059,0,2,
340,,43.873198,,2,,340,,Westbound @ 946 Champlain,-78.889539,0,2,
3409,,43.9143679,,2,,3409,,Dryden Westbound @ Thickson,-78.92400139999998,0,1,
3410,,43.908294,,2,,3410,,Thickson Southbound @ Winterberry,-78.922324,0,2,
3411,,43.904494,,2,,3411,,Thickson Southbound @ Rossland,-78.920688,0,1,
3413,,43.8994523,,2,,3413,,Thickson Southbound @ Marta,-78.9184387,0,2,
3415,,43.894635,,2,,3415,,Thickson Southbound @ Manning,-78.91639499999998,0,2,
3416,,43.88915200000001,,2,,3416,,Garrard Northbound @ Dundas,-78.903084,0,1,
3417,,43.88901400000001,,2,,3417,,Garrard Southbound @ Dundas,-78.903248,0,2,
3419,,43.89232,,2,,3419,,Garrard Southbound @ Burnage,-78.90464,0,2,
342,,43.87293600000001,,2,,342,,Stellar Westbound @ Thickson,-78.905268,0,1,
3420,,43.91571,,2,,3420,,Dryden Westbound @ Bakerville,-78.91904,0,2,
3421,,43.91489,,2,,3421,,Dryden Westbound @ Waller,-78.92186,0,2,
3422,,43.9557,,2,,3422,,Britannia Westbound @ Thoroughbred,-78.90185,0,2,
3423,,43.9555,,2,,3423,,Britannia Eastbound @ Thoroughbred,-78.90163,0,2,
343,,43.88010220000001,,2,,343,,Kendalwood Northbound @ Sawdon,-78.8990682,0,1,
3430,,43.8709498,,2,,3430,,Rossland Eastbound @ Church,-79.06307049999998,0,2,
3431,,43.870787,,2,,3431,,Rossland Eastbound @ Shell,-79.068303,0,2,
3432,,43.870936,,2,,3432,,Rossland Westbound @ Shell,-79.068386,0,2,
3433,,43.870129,,2,,3433,,Rossland Westbound @ Seagrave,-79.072756,0,2,
3434,,43.869703,,2,,3434,,Rossland Eastbound @ Riverside,-79.073729,0,2,
3435,,43.868324,,2,,3435,,Rossland Eastbound @ Southcott,-79.079724,0,1,
344,,43.8818189,,2,,344,,Kendalwood Northbound @ Broadview,-78.8998565,0,1,
345,,43.88518710000001,,2,,345,,Kendalwood Northbound @ Northview,-78.9014091,0,1,
346,,43.892441,,2,,346,,Garrard Northbound @ Burnage,-78.904566,0,1,
348,,43.896954,,2,,348,,Garrard Northbound @ Manning,-78.906543,0,1,
349,,43.899542,,2,,349,,Garrard Northbound @ Forest,-78.907678,0,1,
350,,43.901785,,2,,350,,Garrard Northbound @ Westwood,-78.908666,0,1,
3510,,43.868662,,2,,3510,,Rossland Westbound @ Southcott,-79.079043,0,2,
3515,,43.832899,,2,,3515,,Altona Northbound @ Shadow,-79.143338,0,2,
3516,,43.83375,,2,,3516,,Altona Southbound @ Shadow,-79.143877,0,2,
3517,,43.951841,,2,,3517,,Harmony Northbound @ Greenhill,-78.854544,0,2,
3518,,43.951249,,2,,3518,,Harmony Southbound @ Greenhill,-78.854888,0,2,
352,,43.906128,,1,,352,,Garrard Northbound @ Rossland,-78.910552,0,1,
353,,43.909057,,2,,353,,Garrard Northbound @ Pogson,-78.911592,0,1,
3531,,43.93451980299271,,2,,3531,,Taunton Westbound @ Mary,-78.87242871207518,0,2,
3532,,43.93408,,2,,3532,,Taunton Eastbound @ Mary,-78.87324,0,2,
3533,,43.93288,,1,,3533,,Taunton Westbound @ Simcoe,-78.87956,0,2,
3534,,43.93301000000001,,1,,3534,,Taunton Eastbound @ Simcoe,-78.87799,0,2,
3535,,43.95638712467473,,2,,3535,,Britannia Westbound @ Simcoe,-78.89864596744778,0,2,
3537,,43.95653,,2,,3537,,Britannia Westbound @ Steeplechase,-78.89646999999998,0,2,
354,,43.91124,,2,,354,,Garrard Northbound @ Donald Wilson,-78.912559,0,1,
3541,,43.949,,2,,3541,,Conlin Eastbound @ Bridle,-78.891015,0,2,
3542,,43.94919,,2,,3542,,Simcoe Southbound @ Conlin,-78.896877,0,2,
3543,,43.96223,,2,,3543,,Carnwith Westbound @ Bayern,-78.9725,0,2,
3544,,43.96165,,2,,3544,,Carnwith Westbound @ Darius Harns,-78.97506,0,2,
3545,,43.9624,,2,,3545,,Carnwith Westbound @ Montgomery,-78.96784,0,2,
3548,,43.9668,,2,,3548,,Carnwith Westbound @ Baldwin,-78.95911,0,2,
3549,,43.95347000000001,,2,,3549,,Baldwin Southbound @ Winchester,-78.9624,0,2,
355,,43.913729,,2,,355,,Garrard Northbound @ Weldon,-78.913659,0,1,
3550,,43.87116000000001,,2,,3550,,Rossland Westbound @ Church,-79.06323,0,2,
3551,,43.94279,,2,,3551,,Ritson Southbound @ Luple,-78.87257,0,2,
3553,,43.91268,,2,,3553,,Courtice Northbound @ Highway 2,-78.77812,0,1,
3554,,43.84519,,2,,3554,,Audley Southbound @ Denny,-78.98729,0,2,
3555,,43.84498,,2,,3555,,Audley Northbound @ Denny,-78.98701,0,2,
3556,,43.95564229526925,,1,,3556,,Simcoe Southbound @ Britannia,-78.8997537673666,0,2,
3557,,43.95583,,1,,3557,,Simcoe Northbound @ Britannia,-78.89949,0,2,
356,,43.916354,,2,,356,,Garrard Northbound @ Dryden,-78.914815,0,2,
3560,,43.85045080317794,,2,,3560,,Brock Road Northbound @ Finch,-79.07553726765236,0,2,
3562,,43.87795,,2,,3562,,Wentworth Westbound @ Wilson,-78.832953,0,2,
3563,,43.876669,,2,,3563,,Wentworth Westbound @ Nelson,-78.837602,0,2,
3564,,43.876379,,2,,3564,,Wentworth Eastbound @ Nelson,-78.838196,0,2,
3565,,43.875698,,2,,3565,,Wentworth Westbound @ Ritson,-78.84196799999998,0,2,
3566,,43.87551,,2,,3566,,Wentworth Eastbound @ Ritson,-78.841977,0,2,
3567,,43.878204,,2,,3567,,Simcoe Southbound @ Erie,-78.853061,0,2,
3569,,43.876637,,2,,3569,,Simcoe Southbound @ Whiting,-78.849958,0,2,
3570,,43.873879,,1,,3570,,Simcoe Southbound @ Wentworth,-78.84462499999998,0,2,
3572,,43.878735,,2,,3572,,Zents Westbound @ Tillings,-79.092628,0,2,
3573,,43.874998,,2,,3573,,Tillings Southbound @ Scenic Lane,-79.09144999999998,0,2,
3579,,43.9545412,,2,,3579,,Britannia Eastbound @ Kentucky Derby,-78.9057703,0,2,
3580,,43.9537361,,2,,3580,,Britannia Westbound @ Windfields Farms,-78.9106833,0,2,
3584,,43.8587,,1,,3584,,Gordon Southbound @ Whitby Shores Greenway,-78.94381,0,1,
3585,,43.85673,,2,,3585,,Southbound @ 300 Gordon (Lakeridge Health Whitby),-78.94298,0,1,
3586,,43.882051,,2,,3586,,Park Southbound @ Hillside,-78.868142,0,2,
3587,,43.881571,,2,,3587,,Park Northbound @ Hillside,-78.868386,0,2,
3588,,43.849206,,2,,3588,,Ontario Shores (East Entrance),-78.944599,0,1,
3589,,43.787494,,2,,3589,,Centennial Circle,-79.190831,0,1,
3590,,43.820127,,2,,3590,,Kingston Westbound @ Delta,-79.114142,0,1,
3591,,43.962738,,1,,3591,,Windfields Farm Eastbound @ Thoroughbred,-78.90513,0,2,
3592,,43.962037,,2,,3592,,Windfields Farm Westbound @ Kentucky Derby,-78.909043,0,2,
3600,,43.961779,,2,,3600,,Windfields Farm Eastbound @ Kentucky Derby,-78.909473,0,2,
3601,,43.959762,,2,,3601,,Windfields Farm Northbound @ Bandsman,-78.914635,0,2,
3602,,43.956693,,2,,3602,,Windfields Farm Northbound @ Equestrian,-78.913442,0,2,
3603,,43.963141,,1,,3603,,Windfields Farm Westbound @ Thoroughbred,-78.904278,0,2,
3604,,43.96031,,2,,3604,,Windfields Farm Southbound @ Stallion,-78.914539,0,2,
3605,,43.956586,,2,,3605,,Windfields Farm Southbound @ Dress Circle,-78.913582,0,2,
3608,,43.94666800000001,,1,,3608,,Simcoe Northbound @ Founders,-78.894075,0,2,
3617,,43.958227,,1,,3617,,Thickson Northbound @ Winchester,-78.94370499999998,0,2,
3618,,43.961855,,2,,3618,,Thickson Northbound @ Blackfriar,-78.945277,0,2,
3619,,43.953911,,2,,3619,,Anderson Northbound @ Settlers,-78.94585499999998,0,2,
362,,43.9239959,,2,,362,,Taunton Westbound @ Garrard,-78.9190382,0,1,
3627,,43.955959,,2,,3627,,Baldwin Southbound @ Cassels,-78.96136799999998,0,2,
3628,,43.956227,,2,,3628,,Anderson Southbound @ Winchester,-78.94713299999998,0,2,
3629,,43.95373,,2,,3629,,Anderson Southbound @ Duggan,-78.94601,0,2,
363,,43.92340655801685,,2,,363,,Taunton Westbound @ Tom Edwards,-78.92178700704784,0,1,
3633,,43.963248,,1,,3633,,Simcoe Northbound @ Windfields Farm,-78.902719,0,2,
3635,,44.109315,,2,,3635,,Brock Eastbound @ Main,-79.12059499999998,0,2,
3636,,43.895486,,1,,3636,,Harmony Southbound @ Olive,-78.830067,0,2,
3637,,43.952059,,2,,3637,,Grandview Northbound @ Esterbrook,-78.844133,0,2,
364,,43.922224,,2,,364,,Taunton Westbound @ Thickson,-78.92679099999998,0,1,
365,,43.9212983,,1,,365,,Taunton Westbound @ Rivers Edge,-78.9308059,0,1,
366,,43.919855,,2,,366,,Taunton Westbound @ Anderson,-78.937201,0,1,
367,,43.91891420000001,,1,,367,,Westbound @ 440 Taunton,-78.9417529,0,1,
368,,43.91729680000001,,2,,368,,Taunton Westbound @ Garden (West side stop),-78.9492709,0,1,
369,,43.916453,,1,,369,,Taunton Westbound @ McKinney,-78.95299799999998,0,1,
370,,43.91508420000001,,2,,370,,Taunton Westbound @ Valleywood,-78.9592671,0,1,
371,,43.913312,,1,,371,,Taunton Westbound @ Cochrane,-78.966544,0,1,
372,,43.910955,,2,,372,,Taunton Westbound @ Country Lane,-78.976445,0,2,
373,,43.9096849,,1,,373,,Taunton Eastbound @ Baycliffe,-78.9808378,0,1,
374,,43.910527,,2,,374,,Taunton Eastbound @ Country Lane,-78.97723999999998,0,1,
375,,43.914525,,2,,375,,Taunton Eastbound @ Valleywood,-78.960565,0,1,
376,,43.91501800000001,,2,,376,,Taunton Eastbound @ Brock Street,-78.958357,0,1,
377,,43.916349,,1,,377,,Taunton Eastbound @ Riverwood,-78.95252,0,1,
378,,43.9175701,,2,,378,,Taunton Eastbound @ Garden,-78.9468906,0,1,
379,,43.918238,,2,,379,,Eastbound @ 379 Taunton,-78.943813,0,1,
380,,43.9188963,,1,,380,,Eastbound @ 435 Taunton,-78.9406966,0,1,
381,,43.9195199,,2,,381,,Taunton Eastbound @ Anderson,-78.9379152,0,1,
382,,43.92088900000001,,1,,382,,Taunton Eastbound @ Chatterson,-78.931424,0,1,
383,,43.921996,,2,,383,,Taunton Eastbound @ Thickson,-78.926841,0,1,
384,,43.923214,,2,,384,,Taunton Eastbound @ Tom Edwards,-78.921678,0,1,
385,,43.92414,,2,,385,,Taunton Eastbound @ Garrard,-78.91737,0,1,
386,,43.888886,,1,,386,,Dundas Westbound @ Garrard,-78.902539,0,1,
387,,43.887427,,2,,387,,Dundas Westbound @ Kathleen,-78.90900999999998,0,1,
388,,43.886286,,1,,388,,Dundas Westbound @ Thickson,-78.914145,0,1,
389,,43.8856414,,2,,389,,Dundas Westbound @ Bowman,-78.917045,0,1,
391,,43.884522,,1,,391,,Dundas Westbound @ Anderson,-78.92200099999998,0,2,
393,,43.882884,,2,,393,,Dundas Westbound @ Craydon,-78.929034,0,2,
394,,43.882244,,1,,394,,Dundas Westbound @ Garden,-78.931932,0,1,
396,,43.881084,,2,,396,,Dundas Westbound @ Pine,-78.936954,0,2,
398,,43.879998,,1,,398,,Dundas Westbound @ Brock Street,-78.941772,0,1,
400,,43.878878,,2,,400,,Dundas Westbound @ Euclid,-78.946685,0,2,
401,,43.877863,,1,,401,,Dundas Westbound @ Cochrane,-78.95152,0,2,
404,,43.8767817,,2,,404,,Dundas Westbound @ Wellington,-78.9562584,0,1,
405,,43.875597,,1,,405,,Dundas Westbound @ McQuay,-78.961433,0,1,
406,,43.875049,,2,,406,,Dundas Westbound @ White Oaks,-78.963955,0,1,
410,,43.87132,,2,,410,,Dundas Westbound @ Halls,-78.98098,0,2,
411,,43.869986,,2,,411,,Kingston Westbound @ Lake Ridge,-78.987092,0,2,
412,,43.869794,,2,,412,,Kingston Eastbound @ Lake Ridge,-78.98701,0,2,
413,,43.87107000000001,,2,,413,,Dundas Eastbound @ Halls,-78.98135,0,2,
417,,43.87498,,2,,417,,Dundas Eastbound @ White Oaks,-78.96353499999998,0,1,
418,,43.8753204,,1,,418,,Dundas Eastbound @ Jeffery,-78.9619208,0,1,
419,,43.876609,,2,,419,,Dundas Eastbound @ Wellington,-78.956299,0,1,
42,,43.862229,,2,,42,,Victoria Westbound @ Brock Street,-78.935434,0,1,
422,,43.877818,,1,,422,,Dundas Eastbound @ Annes,-78.950632,0,1,
424,,43.87885,,2,,424,,Dundas Eastbound @ King,-78.946098,0,1,
425,,43.8797255,,1,,425,,Dundas Eastbound @ Brock Street,-78.94241049999998,0,2,
427,,43.88066400000001,,2,,427,,Dundas Eastbound @ Hickory,-78.938157,0,2,
43,,43.86147716,,2,,43,,Victoria Westbound @ Henry,-78.938856,0,1,
431,,43.88225,,1,,431,,Dundas Eastbound @ Lupin,-78.93106899999998,0,1,
432,,43.882846,,2,,432,,Dundas Eastbound @ Craydon,-78.928486,0,1,
434,,43.884171,,1,,434,,Dundas Eastbound @ Hopkins,-78.922742,0,2,
438,,43.885654,,2,,438,,Nichol Eastbound @ Kirby,-78.903502,0,1,
439,,43.88534700000001,,2,,439,,Kendalwood Southbound @ Northview,-78.901627,0,1,
441,,43.880648,,2,,441,,Kendalwood Southbound @ Sawdon,-78.899482,0,1,
442,,43.87938,,2,,442,,Kendalwood Southbound @ Burns,-78.898906,0,1,
445,,43.885687,,2,,445,,Nichol Westbound @ Kirby,-78.90375299999998,0,1,
446,,43.884234,,2,,446,,Nichol Westbound @ Springwood,-78.90648,0,1,
447,,43.882875,,2,,447,,Nichol Westbound @ Jubilee,-78.909845,0,1,
448,,43.882509,,2,,448,,Nichol Westbound @ Thickson,-78.91251099999998,0,1,
449,,43.88398140000001,,2,,449,,Northbound @ 155 Glen Hill,-78.91447599999998,0,1,
45,,43.859114,,2,,45,,Victoria Westbound @ Montecorte,-78.949545,0,2,
450,,43.885523,,2,,450,,Dundas Eastbound @ Glen Hill,-78.916718,0,2,
451,,43.886613,,1,,451,,Dundas Eastbound @ Thickson,-78.911815,0,1,
452,,43.887178,,2,,452,,Dundas Eastbound @ Kathleen,-78.909422,0,1,
453,,43.888373,,1,,453,,Dundas Eastbound @ Kendalwood,-78.903884,0,1,
454,,43.907336,,2,,454,,Rossland Westbound @ William Davidson,-78.90711,0,1,
455,,43.906573,,1,,455,,Rossland Westbound @ Garrard,-78.910464,0,2,
456,,43.905972,,2,,456,,Rossland Westbound @ Tamarisk,-78.912914,0,1,
457,,43.905041,,2,,457,,Rossland Westbound @ Fencerow,-78.916926,0,1,
458,,43.904395,,2,,458,,Rossland Westbound @ Thickson,-78.91971599999998,0,1,
459,,43.90280400000001,,2,,459,,Rossland Westbound @ Doulton,-78.927091,0,1,
460,,43.90214933,,2,,460,,Rossland Westbound @ Anderson,-78.930008,0,1,
461,,43.9009439,,2,,461,,Rossland Westbound @ Bassett,-78.9353815,0,1,
462,,43.899906,,1,,462,,Rossland Westbound @ Garden (Durham Region Headquarters),-78.939886,0,1,
464,,43.898832,,2,,464,,Rossland Westbound @ Civic Centre Drive,-78.944604,0,1,
465,,43.89741,,2,,465,,Rossland Westbound @ Brock Street,-78.95003,0,1,
467,,43.89627,,2,,467,,Rossland Westbound @ Whitburn,-78.956033,0,1,
468,,43.895555,,2,,468,,Rossland Westbound @ Cochrane,-78.95936399999998,0,1,
469,,43.89427381,,1,,469,,Rossland Westbound @ Country Lane,-78.964817,0,1,
470,,43.891112,,1,,470,,Rossland Westbound @ McQuay,-78.978819,0,2,
471,,43.891145,,1,,471,,Rossland Eastbound @ McQuay,-78.978273,0,1,
472,,43.89412,,1,,472,,Rossland Eastbound @ Country Lane,-78.96458,0,1,
473,,43.895243,,2,,473,,Rossland Eastbound @ Cochrane,-78.959856,0,1,
474,,43.89609699482188,,2,,474,,Rossland Eastbound @ Redoak,-78.95613126641868,0,2,
476,,43.89743,,2,,476,,Rossland Eastbound @ Brock Street,-78.94953,0,1,
477,,43.898728,,2,,477,,Rossland Eastbound @ Civic Centre Drive,-78.944498,0,1,
480,,43.899581,,1,,480,,Rossland Eastbound @ Garden (Durham Region Headquarters),-78.940539,0,1,
481,,43.9006827,,2,,481,,Rossland Eastbound @ Bassett,-78.9356953,0,1,
482,,43.902041,,2,,482,,Rossland Eastbound @ Anderson,-78.929591,0,1,
483,,43.90268300000001,,2,,483,,Rossland Eastbound @ Overlord,-78.926736,0,1,
484,,43.9039,,2,,484,,Rossland Eastbound @ Thickson,-78.92099,0,1,
485,,43.904922,,2,,485,,Rossland Eastbound @ Canadian Oaks,-78.916718,0,1,
486,,43.9056983,,2,,486,,Rossland Eastbound @ Orvis,-78.9135536,0,1,
487,,43.906151,,1,,487,,Rossland Eastbound @ Garrard,-78.911489,0,2,
488,,43.9072446,,2,,488,,Rossland Eastbound @ William Davidson,-78.9069581,0,1,
490,,43.951339,,2,,490,,Baldwin Northbound @ Roybrook,-78.961822,0,1,
491,,43.953127,,2,,491,,Baldwin Northbound @ Winchester,-78.962199,0,2,
492,,43.95580300000001,,1,,492,,Baldwin Northbound @ Cassels,-78.961218,0,2,
497,,43.956651,,2,,497,,Winchester Eastbound @ Anderson,-78.946403,0,2,
505,,43.968094,,2,,505,,Carnwith Westbound @ Thickson,-78.94893399999998,0,1,
506,,43.9673515,,2,,506,,Carnwith Westbound @ Croxall,-78.9528905,0,1,
507,,43.967171,,2,,507,,Carnwith Westbound @ Downey,-78.956391,0,1,
511,,43.95703060000001,,1,,511,,Campbell Eastbound @ Baldwin,-78.9612058,0,2,
512,,43.9569741,,2,,512,,Vipond Eastbound @ Montgomery,-78.9653316,0,1,
513,,43.9560241,,2,,513,,Vipond Eastbound @ Ferguson,-78.9694672,0,1,
514,,43.9550968,,2,,514,,Vipond Eastbound @ Sabrina,-78.97358749999998,0,1,
533,,43.96218,,2,,533,,Thickson Southbound @ Blackfriar,-78.945648,0,2,
535,,43.950765,,2,,535,,Baldwin Southbound @ Roybrook,-78.961834,0,2,
536,,43.883049,,2,,536,,Gibb Eastbound @ Tipperary,-78.892157,0,1,
537,,43.8833,,2,,537,,Gibb Westbound @ Tipperary,-78.891938,0,1,
539,,43.885866,,2,,539,,Thornton Northbound @ Donegal,-78.890887,0,1,
541,,43.889148,,2,,541,,Thornton Northbound @ Monaghan (Trent University Oshawa),-78.892334,0,2,
542,,43.8913759,,2,,542,,Thornton Northbound @ King,-78.8933631,0,1,
543,,43.89427409000001,,2,,543,,Thornton Northbound @ Castlegrove,-78.894577,0,1,
544,,43.895745,,2,,544,,Northbound @ 185 Thornton,-78.895259,0,1,
559,,43.89628,,2,,559,,Thornton Southbound @ Adelaide (South side stop),-78.895698,0,1,
560,,43.89355735,,2,,560,,Thornton Southbound @ Castlegrove,-78.894515,0,1,
561,,43.8915529,,2,,561,,Thornton Southbound @ King,-78.8936936,0,1,
563,,43.886025,,2,,563,,Thornton Southbound @ Donegal,-78.891096,0,1,
565,,43.908465,,2,,565,,Rossland Eastbound @ Thornton,-78.901066,0,1,
566,,43.909431,,2,,566,,Rossland Eastbound @ Waverly,-78.896541,0,1,
567,,43.910505,,1,,567,,Rossland Eastbound @ Stevenson,-78.891435,0,1,
569,,43.911558,,2,,569,,Rossland Eastbound @ Gibbons,-78.886776,0,1,
57,,43.851303,,2,,57,,Southbound @ 652 Gordon,-78.940748,0,2,
570,,43.912237,,2,,570,,Rossland Eastbound @ Park,-78.883718,0,1,
571,,43.9141525,,2,,571,,Rossland Eastbound @ Christie,-78.87504869999998,0,1,
573,,43.9151538,,2,,573,,Rossland Eastbound @ Simcoe,-78.8705428,0,1,
574,,43.915824,,2,,574,,Rossland Eastbound @ Grierson,-78.867671,0,2,
575,,43.916479,,2,,575,,Rossland Eastbound @ Oshawa Boulevard,-78.864739,0,1,
576,,43.917332,,1,,576,,Rossland Eastbound @ Ritson,-78.86071099999998,0,1,
577,,43.918411,,2,,577,,Rossland Eastbound @ Central Park,-78.856553,0,1,
58,,43.848198,,2,,58,,Ontario Shores (West Entrance),-78.945576,0,2,
581,,43.919467,,1,,581,,Rossland Eastbound @ Wilson,-78.852082,0,2,
582,,43.92071,,2,,582,,Rossland Eastbound @ Camelot,-78.84681,0,1,
583,,43.92152,,2,,583,,Rossland Eastbound @ Harmony,-78.843256,0,1,
584,,43.921583,,1,,584,,Harmony Northbound @ Rossland (South side stop),-78.841479,0,2,
585,,43.9223567,,2,,585,,Rossland Westbound @ Harmony,-78.8401886,0,1,
586,,43.921478,,2,,586,,Rossland Westbound @ Gladfern,-78.843935,0,1,
587,,43.920769,,2,,587,,Rossland Westbound @ Attersley,-78.846996,0,1,
588,,43.91992900000001,,1,,588,,Rossland Westbound @ Wilson,-78.850545,0,1,
59,,43.851033,,2,,59,,Eastbound @ 701 Gordon,-78.94083999999998,0,1,
591,,43.918907,,2,,591,,Rossland Westbound @ Terrace,-78.854902,0,1,
592,,43.9184,,2,,592,,Rossland Westbound @ Central Park,-78.857043,0,1,
593,,43.917737,,2,,593,,Westbound @ 354 Rossland,-78.859627,0,1,
594,,43.917149,,1,,594,,Rossland Westbound @ Ritson,-78.862066,0,1,
595,,43.916682,,2,,595,,Rossland Westbound @ Oshawa Boulevard,-78.864393,0,1,
596,,43.916114,,2,,596,,Rossland Westbound @ Minto,-78.866933,0,2,
597,,43.915011,,2,,597,,Rossland Westbound @ Simcoe,-78.87191799999998,0,1,
598,,43.9142915,,2,,598,,Rossland Westbound @ Osler,-78.87505779999998,0,1,
599,,43.912489,,2,,599,,Rossland Westbound @ Glencairn,-78.883143,0,1,
60,,43.85644,,2,,60,,Northbound @ 300 Gordon (Lakeridge Health Whitby),-78.94271,0,1,
600,,43.91198,,2,,600,,Rossland Westbound @ Gibbons,-78.885572,0,2,
602,,43.910599,,1,,602,,Rossland Westbound @ Stevenson,-78.89182099999998,0,1,
603,,43.909586,,2,,603,,Rossland Westbound @ Waverly,-78.89659899999998,0,1,
604,,43.908595,,2,,604,,Rossland Westbound @ Thornton,-78.90127099999998,0,1,
605,,43.91553600000001,,2,,605,,Simcoe Northbound @ Rossland,-78.871221,0,1,
61,,43.85839,,1,,61,,Gordon Northbound @ Whitby Shores Greenway,-78.94353,0,1,
63,,43.86111226967263,,2,,63,,Victoria Eastbound @ Watson,-78.93984371488986,0,1,
638,,43.92317417000001,,2,,638,,Grandview Northbound @ Ripley,-78.83853,0,1,
639,,43.92584,,2,,639,,Grandview Northbound @ Corbetts,-78.839057,0,1,
64,,43.861691,,2,,64,,Victoria Eastbound @ Charles,-78.937137,0,1,
640,,43.92727829,,2,,640,,Grandview Northbound @ Lindsay,-78.838302,0,1,
641,,43.92773900000001,,2,,641,,Grandview Northbound @ Grandlea,-78.836174,0,1,
642,,43.928737,,2,,642,,Grandview Northbound @ Rathburn,-78.834149,0,1,
643,,43.933817,,2,,643,,Grandview Northbound @ Summitview (South stop),-78.836078,0,1,
644,,43.934956,,2,,644,,Grandview Northbound @ Summitview (North stop),-78.83658,0,1,
645,,43.93717,,2,,645,,Grandview Northbound @ Ridgemount,-78.837565,0,1,
646,,43.939427,,2,,646,,Grandview Northbound @ Glenbourne,-78.838566,0,1,
647,,43.94095,,2,,647,,Grandview Northbound @ Taunton,-78.839225,0,1,
648,,43.94367900000001,,2,,648,,Grandview Northbound @ Park Ridge,-78.840306,0,1,
649,,43.9463599,,2,,649,,Grandview Northbound @ Appleby,-78.8414887,0,1,
650,,43.914802,,2,,650,,Simcoe Southbound @ Rossland,-78.87128199999998,0,1,
652,,43.91044473,,2,,652,,Simcoe Southbound @ Buckingham,-78.869478,0,1,
654,,43.90554102,,2,,654,,Simcoe Southbound @ Parkwood (Lakeridge Health Oshawa),-78.86736,0,1,
655,,43.903,,2,,655,,Simcoe Southbound @ Adelaide,-78.866169,0,2,
657,,43.90002900000001,,2,,657,,Centre Southbound @ William,-78.867222,0,2,
659,,43.897281,,1,,659,,Centre Southbound @ King,-78.865958,0,2,
661,,43.893237,,2,,661,,Centre Southbound @ John,-78.863867,0,1,
663,,43.890561,,2,,663,,Centre Southbound @ Gibb,-78.862638,0,1,
664,,43.887996,,2,,664,,Simcoe Southbound @ Royal,-78.859288,0,2,
665,,43.885542,,2,,665,,Simcoe Southbound @ Mill,-78.858189,0,1,
666,,43.883745,,2,,666,,Simcoe Southbound @ First,-78.857382,0,1,
667,,43.8810192,,2,,667,,Simcoe Southbound @ Bloor,-78.85623649999998,0,2,
668,,43.88109588,,2,,668,,Simcoe Northbound @ Bloor,-78.85599499999998,0,2,
669,,43.88393400000001,,2,,669,,Simcoe Northbound @ First,-78.857287,0,1,
670,,43.885802,,2,,670,,Simcoe Northbound @ Albany,-78.858134,0,1,
671,,43.888214,,2,,671,,Simcoe Northbound @ Royal,-78.859208,0,2,
672,,43.890377,,2,,672,,Simcoe Northbound @ Elm St,-78.860193,0,2,
674,,43.894039,,2,,674,,Simcoe Northbound @ John,-78.86185999999998,0,1,
677,,43.898769,,1,,677,,Simcoe Northbound @ Bond,-78.86413,0,2,
678,,43.90088592,,2,,678,,Simcoe Northbound @ Colborne,-78.865075,0,1,
679,,43.903302,,2,,679,,Simcoe Northbound @ Adelaide,-78.866139,0,1,
680,,43.905794,,2,,680,,Simcoe Northbound @ Parkwood (Lakeridge Health Oshawa),-78.867149,0,1,
682,,43.9108,,2,,682,,Simcoe Northbound @ Hillcroft,-78.869386,0,2,
685,,43.921189,,2,,685,,Simcoe Northbound @ Switzer,-78.873688,0,2,
687,,43.92581100000001,,2,,687,,Simcoe Northbound @ Beatrice,-78.875722,0,1,
689,,43.92918800000001,,2,,689,,Simcoe Northbound @ Orchard View,-78.877303,0,2,
691,,43.93456900000001,,1,,691,,Simcoe Northbound @ Taunton (North side stop),-78.87949,0,1,
693,,43.936894,,2,,693,,Simcoe Northbound @ Glovers,-78.880577,0,1,
695,,43.94030200000001,,2,,695,,Simcoe Northbound @ Selleck,-78.884992,0,2,
697,,43.945336,,2,,697,,Simcoe Northbound @ Commencement,-78.892132,0,2,
698,,43.943641,,1,,698,,Ontario Tech / Durham College North Campus,-78.895505,0,1,
705,,43.952855,,2,,705,,Simcoe Northbound @ Northern Dancer,-78.89823,0,2,
706,,43.94308388677758,,2,,706,,Simcoe Southbound @ Niagara (North stop),-78.88919142270213,0,2,
707,,43.94097195519895,,2,,707,,Simcoe Southbound @ Niagara (South stop),-78.88622547469654,0,2,
710,,43.93549500000001,,2,,710,,Simcoe Southbound @ Cayuga,-78.880108,0,2,
711,,43.93236901,,1,,711,,Simcoe Southbound @ Taunton (south side stop),-78.87899819,0,1,
713,,43.929238,,2,,713,,Simcoe Southbound @ Orchard View,-78.877548,0,2,
714,,43.926397,,2,,714,,Simcoe Southbound @ Beatrice,-78.876283,0,2,
716,,43.921148,,2,,716,,Simcoe Southbound @ Switzer,-78.873886,0,2,
719,,43.902369,,2,,719,,Adelaide Eastbound @ Kaiser,-78.870727,0,1,
720,,43.903236,,2,,720,,Adelaide Eastbound @ Simcoe,-78.866944,0,1,
721,,43.904587,,2,,721,,Adelaide Eastbound @ Kendal,-78.864226,0,1,
722,,43.905681,,2,,722,,Adelaide Eastbound @ Division,-78.859663,0,1,
724,,43.90771,,2,,724,,Adelaide Eastbound @ Central Park,-78.852306,0,1,
725,,43.908797,,2,,725,,Adelaide Eastbound @ Juliana,-78.848831,0,1,
729,,43.913364,,2,,729,,Adelaide Eastbound @ Blackthorn,-78.833889,0,1,
730,,43.91376600000001,,2,,730,,Adelaide Eastbound @ Killdeer,-78.831601,0,1,
732,,43.91408,,2,,732,,Adelaide Eastbound @ Fleetwood,-78.82607,0,1,
743,,43.91399306000001,,2,,743,,Adelaide Westbound @ Cranberry,-78.82981599999998,0,1,
744,,43.91383600000001,,2,,744,,Adelaide Westbound @ Killdeer,-78.832061,0,1,
745,,43.91318900000001,,2,,745,,Adelaide Westbound @ Blackthorn,-78.83508999999998,0,1,
746,,43.912793,,1,,746,,Adelaide Westbound @ Harmony,-78.837002,0,1,
749,,43.908884,,2,,749,,Adelaide Westbound @ Juliana,-78.848885,0,1,
750,,43.907641,,2,,750,,Adelaide Westbound @ Central Park,-78.852635,0,1,
751,,43.906731,,2,,751,,Adelaide Westbound @ Ritson,-78.85562299999998,0,1,
752,,43.905788,,2,,752,,Adelaide Westbound @ Division,-78.859632,0,1,
753,,43.90463900000001,,2,,753,,Adelaide Westbound @ Kendal,-78.864441,0,1,
754,,43.90394,,2,,754,,Adelaide Westbound @ Simcoe,-78.866193,0,1,
755,,43.902554,,2,,755,,Adelaide Westbound @ Frances,-78.870472,0,1,
7698,,43.786768,,2,,7698,,Ellesmere Eastbound @ Military Trail,-79.187251,0,1,
773,,43.91553300000001,,2,,773,,Townline Southbound @ Lawson,-78.817411,0,2,
774,,43.91279500000001,,2,,774,,Townline Southbound @ Shankel,-78.816214,0,2,
775,,43.90883,,2,,775,,Townline Southbound @ Nash,-78.814468,0,2,
786,,43.90814300000001,,2,,786,,Townline Northbound @ Nash,-78.813964,0,2,
787,,43.912786,,2,,787,,Townline Northbound @ Shankel,-78.816023,0,2,
799,,43.946346,,2,,799,,Grandview Southbound @ Appleby,-78.84174,0,1,
800,,43.94284300000001,,2,,800,,Grandview Southbound @ Park Ridge,-78.84021,0,1,
801,,43.94091,,2,,801,,Grandview Southbound @ Taunton,-78.83936199999998,0,1,
802,,43.93880915,,2,,802,,Grandview Southbound @ Glenbourne,-78.83840499999998,0,1,
803,,43.937222,,2,,803,,Grandview Southbound @ Ridgemount,-78.837723,0,1,
804,,43.934055,,2,,804,,Grandview Southbound @ Summitview,-78.83631699999998,0,1,
805,,43.929324,,2,,805,,Grandview Southbound @ Rathburn,-78.834244,0,1,
806,,43.92785527,,2,,806,,Grandview Southbound @ Grandlea,-78.836264,0,1,
807,,43.92730266,,2,,807,,Grandview Southbound @ Lindsay,-78.83848999999998,0,1,
808,,43.92517,,2,,808,,Grandview Southbound @ Corbetts,-78.83938999999998,0,1,
809,,43.9229815,,2,,809,,Grandview Southbound @ Rossland,-78.8386276,0,1,
810,,43.940279,,2,,810,,Harmony Northbound @ Taunton (North Side Stop),-78.849628,0,1,
812,,43.942102,,1,,812,,Harmony Terminal,-78.848752,0,1,
815,,43.94033300000001,,2,,815,,Harmony Terminal Southbound @ Taunton,-78.847847,0,1,
817,,43.94750100000001,,2,,817,,Delpark Homes Centre,-78.85074299999998,0,1,
823,,43.939344,,2,,823,,Taunton Westbound @ Harmony,-78.850735,0,1,
824,,43.9384,,2,,824,,Taunton Westbound @ Clearbrook,-78.854926,0,1,
825,,43.93758900000001,,1,,825,,Taunton Westbound @ Wilson (East side stop),-78.858528,0,1,
827,,43.935955,,2,,827,,Taunton Westbound @ Naples,-78.865774,0,1,
828,,43.9354034,,1,,828,,Taunton Westbound @ Ritson,-78.8685493,0,1,
829,,43.93202615,,2,,829,,Taunton Westbound @ Somerville,-78.883392,0,1,
830,,43.931005,,2,,830,,Taunton Westbound @ Patton,-78.887894,0,1,
831,,43.9296729,,2,,831,,Westbound @ 418 Taunton,-78.893897,0,1,
832,,43.92879302,,1,,832,,Taunton Westbound @ Stevenson,-78.89779906,0,1,
833,,43.927623,,2,,833,,Taunton Westbound @ Keith Ross,-78.902849,0,1,
834,,43.9265,,1,,834,,Taunton Westbound @ Thornton,-78.907938,0,1,
835,,43.92524800000001,,2,,835,,Eastbound @ 899 Taunton,-78.912558,0,1,
836,,43.92635520000001,,1,,836,,Taunton Eastbound @ Thornton,-78.907676,0,1,
837,,43.9274802,,2,,837,,Taunton Eastbound @ Keith Ross,-78.902595,0,1,
838,,43.92843734,,1,,838,,Taunton Eastbound @ Airport,-78.89858982,0,1,
839,,43.92933224951988,,2,,839,,Eastbound @ 389 Taunton,-78.89460375665142,0,1,
840,,43.930783,,2,,840,,Taunton Eastbound @ Northbrook,-78.888058,0,1,
841,,43.93161,,2,,841,,Taunton Eastbound @ Somerville,-78.884417,0,1,
843,,43.935424,,1,,843,,Taunton Eastbound @ Ritson,-78.86738099999998,0,1,
844,,43.935787,,2,,844,,Taunton Eastbound @ Naples,-78.865706,0,1,
846,,43.937445,,1,,846,,Taunton Eastbound @ Wilson (East side stop),-78.85835299999998,0,1,
847,,43.938297,,2,,847,,Taunton Eastbound @ Clearbrook,-78.854571,0,1,
848,,43.938789,,2,,848,,Taunton Eastbound @ Harmony,-78.85238699999998,0,1,
853,,43.950158,,2,,853,,Conlin Eastbound @ Avalon,-78.885597,0,1,
854,,43.95115100000001,,2,,854,,Conlin Eastbound @ Manor,-78.881227,0,1,
855,,43.951962,,2,,855,,Conlin Eastbound @ Ritson,-78.877706,0,1,
859,,43.937122,,2,,859,,Ritson Southbound @ Ormond,-78.869981,0,1,
861,,43.934373,,1,,861,,Ritson Southbound @ Taunton,-78.868973,0,1,
862,,43.932714,,2,,862,,Ritson Southbound @ Pentland,-78.868262,0,1,
863,,43.929724,,2,,863,,Ritson Southbound @ Beatrice,-78.866915,0,1,
864,,43.927268,,2,,864,,Ritson Southbound @ Oshawa Boulevard (North stop),-78.865798,0,1,
865,,43.92503569,,2,,865,,Ritson Southbound @ Highgate,-78.864766,0,1,
866,,43.923364,,2,,866,,Ritson Southbound @ Wildflower,-78.864075,0,1,
867,,43.92128128,,2,,867,,Ritson Southbound @ Darcy,-78.863175,0,1,
868,,43.917545,,1,,868,,Ritson Southbound @ Rossland,-78.861715,0,1,
869,,43.91508300000001,,2,,869,,Ritson Southbound @ Oshawa Boulevard (South stop),-78.860639,0,1,
870,,43.913394,,2,,870,,Ritson Southbound @ Hillcroft,-78.859886,0,1,
872,,43.906697,,2,,872,,Ritson Southbound @ Adelaide,-78.856969,0,2,
879,,43.906068,,2,,879,,Ritson Northbound @ Adelaide,-78.856466,0,1,
881,,43.913421,,2,,881,,Ritson Northbound @ Hillcroft,-78.85972599999998,0,1,
882,,43.915191,,2,,882,,Ritson Northbound @ Oshawa Boulevard (South stop),-78.860494,0,1,
883,,43.917753,,1,,883,,Ritson Northbound @ Rossland,-78.86149899999998,0,1,
884,,43.919499,,2,,884,,Ritson Northbound @ Tulip,-78.86217499999998,0,1,
885,,43.92126249,,2,,885,,Ritson Northbound @ Darcy,-78.862948,0,1,
886,,43.92314600000001,,2,,886,,Northbound @ 881 Ritson,-78.863791,0,1,
887,,43.925002,,2,,887,,Ritson Northbound @ Highgate,-78.864607,0,1,
888,,43.927335,,2,,888,,Ritson Northbound @ Oshawa Boulevard (North stop),-78.865643,0,1,
889,,43.928913,,2,,889,,Ritson Northbound @ Beatrice (South stop),-78.866347,0,1,
89,,43.87103,,2,,89,,Burns Westbound @ Centre,-78.941511,0,2,
892,,43.93767900000001,,2,,892,,Ritson Northbound @ Ormond,-78.870106,0,1,
896,,43.95187700000001,,2,,896,,Conlin Westbound @ Ritson,-78.878549,0,1,
897,,43.951264,,2,,897,,Conlin Westbound @ Manor,-78.881159,0,1,
898,,43.95035,,2,,898,,Conlin Westbound @ Avalon,-78.88532,0,1,
90,,43.8703679,,2,,90,,Burns Westbound @ Henry,-78.944504401,0,2,
90007,,43.860468,,1,,90007,,Victoria Westbound @ Gordon (Abilities Centre),-78.94369,0,1,
90014,,43.876615,,2,,90014,,Eastbound @ 1908 Colonel Sam,-78.804159,0,1,
90015,,43.877563,,2,,90015,,Simcoe Northbound @ Conant,-78.851395,0,2,
90016,,43.84327300000001,,2,,90016,,Westbound @ 1766 Pickering Parkway,-79.067939,0,2,
90034,,43.930751,,2,,90034,,Scugog Southbound @ Bons,-78.69972199999998,0,1,
90035,,43.927613,,2,,90035,,Scugog Southbound @ Somerscales,-78.698374,0,1,
90038,,43.944594,,2,,90038,,Coldstream Eastbound @ Harmony,-78.8507694,0,1,
90040,,43.9447913,,2,,90040,,Coldstream Westbound @ Harmony (East side stop),-78.8508273,0,1,
90041,,43.94435514,,2,,90041,,Coldstream Westbound @ Harmony (West side stop),-78.852735,0,1,
90042,,43.944835,,2,,90042,,Coldstream Westbound @ Pennel,-78.856035,0,1,
90043,,43.94557611,,2,,90043,,Coldstream Westbound @ Clearbrook,-78.857899,0,1,
90044,,43.946166,,2,,90044,,Coldstream Westbound @ Wilson,-78.862296,0,1,
90045,,43.94900213,,2,,90045,,Wilson Northbound @ Greenhill,-78.86431399999998,0,1,
90050,,43.944435,,2,,90050,,Coldstream Westbound @ Ritson,-78.872409,0,1,
90051,,43.9451727,,2,,90051,,Coldstream Eastbound @ Whitestone,-78.8686743,0,1,
90052,,43.94571,,2,,90052,,Coldstream Westbound @ Ormond,-78.866106,0,1,
90053,,43.945539,,2,,90053,,Coldstream Eastbound @ Ormond,-78.865092,0,1,
90054,,43.945316,,2,,90054,,Wilson Southbound @ Coldstream,-78.862892,0,1,
90055,,43.94023700000001,,2,,90055,,Wilson Southbound @ Larry,-78.860584,0,1,
90056,,43.937886,,1,,90056,,Wilson Southbound @ Taunton,-78.859533,0,1,
90057,,43.935634,,2,,90057,,Southbound @ 1310 Wilson,-78.85862899999998,0,1,
90063,,43.915302,,2,,90063,,Wilson Northbound @ Cavendish,-78.849728,0,1,
90064,,43.915645,,2,,90064,,Wilson Southbound @ Oakwood,-78.849962,0,1,
90065,,43.9190034,,1,,90065,,Wilson Northbound @ Rossland,-78.8512777,0,1,
90066,,43.920439,,1,,90066,,Wilson Southbound @ Rossland,-78.851912,0,1,
90070,,43.943005,,2,,90070,,Wilson Southbound @ Clearsky,-78.861823,0,1,
90076,,43.94634257,,1,,90076,,Simcoe Southbound @ Founders,-78.894148,0,1,
90078,,43.9168969,,2,,90078,,Eastbound @ 169 Taunton,-78.95004,0,1,
90079,,43.94630488,,2,,90079,,Westbound @ 1340 Coldstream,-78.844289,0,1,
90080,,43.9461252,,2,,90080,,Eastbound @ 1321 Coldstream,-78.844471,0,1,
90083,,43.932287,,2,,90083,,Wilson Southbound @ Beatrice,-78.857147,0,1,
90088,,43.9177648,,2,,90088,,Taunton Westbound @ Garden (East side stop),-78.9471226,0,1,
91,,43.8696061,,2,,91,,Burns Westbound @ Annes (East side stop),-78.9479702,0,1,
910,,43.945257,,2,,910,,Coldstream Westbound @ Northfield,-78.868727,0,1,
91000,,43.847692,,2,,91000,,Harwood Southbound @ Hunt,-79.020117,0,1,
911,,43.93885,,2,,911,,Harmony Southbound @ Taunton,-78.849298,0,1,
912,,43.935314,,2,,912,,Harmony Southbound @ Grand Ridge,-78.84771499999998,0,2,
913,,43.933437,,2,,913,,Harmony Southbound @ Swiss,-78.84691599999998,0,1,
92003,,43.88025819,,2,,92003,,Northbound @ 753 Ritson,-78.844845,0,2,
92009,,43.857407,,2,,92009,,Northbound @ 89 Church,-79.056726,0,2,
92010,,43.859534,,2,,92010,,Church Northbound @ Meekings,-79.0576403,0,2,
92011,,43.8627026,,2,,92011,,Northbound @ 399 Church,-79.0590204,0,2,
92012,,43.8645756,,2,,92012,,Church Northbound @ Delaney,-79.05982,0,2,
92013,,43.867394,,2,,92013,,Church Northbound @ Windle,-79.061057,0,2,
92014,,43.86935305,,2,,92014,,Church Northbound @ Strickland,-79.061926,0,2,
92016,,43.87189,,2,,92016,,Rossland Eastbound @ Harkins,-79.05884,0,1,
92017,,43.87402,,2,,92017,,Rossland Eastbound @ Ravenscroft,-79.05276,0,1,
92018,,43.87353682,,2,,92018,,Ravenscroft Southbound @ Rossland,-79.052967,0,2,
92019,,43.871963,,2,,92019,,Ravenscroft Southbound @ Hyde,-79.052408,0,2,
92020,,43.8700233,,2,,92020,,Ravenscroft Southbound @ Delaney,-79.0515815,0,2,
92036,,43.8683026,,2,,92036,,Ravenscroft Southbound @ Pantoll,-79.050836,0,2,
92037,,43.86707220000001,,2,,92037,,Ravenscroft Southbound @ Mossa,-79.0503198,0,2,
92038,,43.86361,,2,,92038,,Ravenscroft Southbound @ Daniels,-79.048446,0,2,
92041,,43.878759,,2,,92041,,Rossland Westbound @ Woodcock,-79.03210199999998,0,1,
92042,,43.878137,,2,,92042,,Rossland Westbound @ 128 Rossland,-79.03495599999998,0,1,
92043,,43.884761,,2,,92043,,Westney Northbound @ Williamson,-79.046574,0,2,
92054,,43.86054494,,2,,92054,,Northbound @ 133 Salem,-79.01441303999998,0,1,
92059,,43.89575475,,2,,92059,,Williamson Eastbound @ Gillett,-79.0227251,0,1,
92061,,43.89760600000001,,2,,92061,,Williamson Westbound @ Warner,-79.016244,0,1,
92064,,43.892717,,2,,92064,,Salem Southbound @ Williamson,-79.028741,0,1,
92071,,43.86138006,,2,,92071,,Salem Southbound @ Twilley,-79.01519546999998,0,1,
92072,,43.8639584,,2,,92072,,Eastbound @ 257 Kingston Road East,-79.0131049,0,1,
92075,,43.85988205000001,,2,,92075,,Salem Southbound @ Mandrake,-79.01450543,0,1,
93000,,43.879227,,2,,93000,,Colonel Sam Eastbound @ Farewell,-78.827646,0,1,
93016,,43.87414,,2,,93016,,Rossland Westbound @ Ravenscroft,-79.05284,0,1,
93019,,44.093966,,2,,93019,,Toronto Northbound @ Banff,-79.13067599999998,0,1,
93020,,44.094054,,2,,93020,,Toronto Southbound @ Banff,-79.130985,0,1,
93024,,43.88908,,2,,93024,,Thornton Southbound @ Monaghan (Trent University Oshawa),-78.892506,0,1,
93026,,43.96308,,1,,93026,,Simcoe Southbound @ Windfields Farm,-78.90291,0,2,
93027,,43.8916763,,2,,93027,,Olive Eastbound @ Verdun,-78.8461123,0,1,
93028,,43.861986,,2,,93028,,Lakeview Westbound @ Birchcliffe,-78.834452,0,1,
93031,,43.89090112,,2,,93031,,Harwood Southbound @ Haskell,-79.03862608999998,0,2,
93035,,43.91884000000001,,2,,93035,,Rossland Eastbound @ Brentwood,-78.85475,0,1,
93036,,43.94528721,,2,,93036,,Harmony Northbound @ Coldstream,-78.85177539999998,0,1,
93040,,43.92999275,,2,,93040,,Baldwin Southbound @ Canary,-78.962969,0,1,
93041,,43.93034,,2,,93041,,Baldwin Northbound @ Canary,-78.96275199999998,0,1,
93048,,43.85221471,,2,,93048,,Kingston Eastbound @ Notion,-79.06469787,0,2,
93054,,43.8863306,,2,,93054,,Gibb Westbound @ Stevenson (East side stop),-78.8793725,0,1,
93055,,43.89199751000001,,2,,93055,,Westney Southbound @ Taunton,-79.05006016999998,0,1,
93056,,43.89317982,,2,,93056,,Westney Northbound @ Taunton,-79.05035663,0,1,
93057,,43.8755334,,2,,93057,,Rossland Westbound @ Carter-Bennett,-79.04638522,0,2,
93058,,43.8506919,,2,,93058,,Gordon Westbound @ James Govan,-78.94358167,0,1,
93059,,43.85061079,,2,,93059,,Gordon Eastbound @ James Govan,-78.94366388,0,1,
93060,,43.808712,,1,,93060,,Kingston Westbound @ Altona,-79.131154,0,1,
93061,,43.807572,,1,,93061,,Kingston Eastbound @ Altona,-79.132422,0,1,
93063,,44.09186165,,2,,93063,,Toronto Southbound @ Douglas,-79.13244958999998,0,1,
93064,,43.9491175,,2,,93064,,Conlin Westbound @ Bridle,-78.8910235,0,1,
93083,,43.91197,,2,,93083,,Eastbound @ 437 Taunton,-78.97113899999998,0,1,
93091,,43.90503,,2,,93091,,Country Lane Northbound @ Shenandoah,-78.97245,0,1,
93092,,43.9091991,,2,,93092,,Country Lane Northbound @ Vineyard,-78.9747169,0,1,
93101,,43.82290900000001,,2,,93101,,Strouds Lane Eastbound @ Calvington,-79.136049,0,1,
93102,,44.093677,,2,,93102,,Old Simcoe Northbound @ Victoria,-78.95541799999998,0,1,
93106,,44.10026,,2,,93106,,Scugog Eastbound @ High,-78.94311,0,2,
93111,,43.9094692,,2,,93111,,Highway 2 Eastbound @ Sandringham,-78.79465159999998,0,2,
93112,,43.832968,,1,,93112,,Pickering Parkway Terminal Platform B12,-79.0851,0,1,
93115,,43.8600147,,1,,93115,,Victoria Eastbound @ Gordon (Abilities Centre),-78.9446226,0,1,
93121,,43.85131100000001,,2,,93121,,Station Westbound @ Harwood,-79.022762,0,2,
93122,,43.85056,,2,,93122,,Station Westbound @ Mills,-79.02585999999998,0,2,
93123,,43.8491309,,2,,93123,,Station Westbound @ Dowty,-79.028733,0,1,
93125,,43.89836540000001,,2,,93125,,Williamson Eastbound @ Seward,-79.01162189999998,0,1,
93126,,43.8984647,,2,,93126,,Williamson Westbound @ Stokes,-79.0118366,0,1,
93127,,43.897461,,2,,93127,,Williamson Eastbound @ Warner,-79.0163395,0,1,
93128,,43.895826,,2,,93128,,Williamson Westbound @ Gillett,-79.02289399999998,0,1,
93137,,43.895662,,2,,93137,,Salem Northbound @ Elliottglen Dr,-79.0297218,0,1,
93138,,43.8955183,,2,,93138,,Salem Southbound @ Dunwell Cr,-79.029968,0,1,
93139,,43.89463400000001,,2,,93139,,Harwood Southbound @ Taunton,-79.042023,0,2,
93140,,43.895046,,2,,93140,,Harwood Northbound @ Taunton,-79.042096,0,1,
93141,,43.8911583,,2,,93141,,Harwood Northbound @ Haskell,-79.03853429999998,0,1,
93142,,43.8885767,,2,,93142,,Harwood Southbound @ Williamson,-79.0376546,0,2,
93143,,43.87613300000001,,1,,93143,,Rossland Westbound @ Westney,-79.044178,0,1,
93145,,43.879163,,2,,93145,,Southbound @ 800 Salem,-79.017714,0,1,
93146,,43.87883,,2,,93146,,Northbound @ 789 Salem,-79.01727099999998,0,2,
93147,,43.8711003,,2,,93147,,Salem Southbound @ Kerrison,-79.0177387,0,2,
93148,,43.8704308,,2,,93148,,Salem Northbound @ Kerrison,-79.0177597,0,1,
93149,,43.8671137,,2,,93149,,Salem Southbound @ Ringer,-79.0176202,0,2,
93150,,43.8666738,,2,,93150,,Salem Northbound @ Ringer,-79.0171273,0,1,
93151,,43.86358,,2,,93151,,Salem Southbound @ Kingston,-79.016129,0,1,
93152,,43.86368800000001,,2,,93152,,Salem Northbound @ Kingston,-79.015986,0,1,
93158,,43.850484,,1,,93158,,Bayly Westbound @ Audley,-78.98969099999998,0,1,
93159,,43.8495632,,2,,93159,,Westbound @ 508 Bayly,-78.9937104,0,1,
93160,,43.890577,,2,,93160,,Southbound @ 1508 Salem,-79.027818,0,1,
93161,,43.89315689,,2,,93161,,Salem Northbound @ Williamson,-79.028651,0,1,
93177,,43.939112,,2,,93177,,Harmony Northbound @ Taunton (South side stop),-78.849112,0,1,
93178,,43.89651,,2,,93178,,Simcoe Northbound @ Athol,-78.86306,0,1,
93183,,43.88834,,2,,93183,,Dean Westbound @ Normandy,-78.844227,0,1,
93185,,43.906341,,2,,93185,,Northbound @ 3193 Thickson,-78.921216,0,1,
93186,,43.9084673,,2,,93186,,Thickson Northbound @ Winterberry,-78.92209579999998,0,1,
93188,,43.88768000000001,,2,,93188,,Thornton Southbound @ Arklow,-78.891874,0,2,
93189,,43.880828,,2,,93189,,Westbound @ 944 Colonel Sam,-78.821307,0,1,
93191,,43.85004333,,2,,93191,,Brock Road Southbound @ Finch,-79.07550836999998,0,1,
93192,,43.839231,,2,,93192,,Glenanna Eastbound @ Fieldlight,-79.08969999999998,0,1,
93193,,43.843305,,2,,93193,,Pickering Parkway Westbound @ Denmar,-79.073586,0,2,
93194,,43.8422129,,2,,93194,,Pickering Parkway Southbound @ Geta,-79.0739061,0,2,
93195,,43.83966433,,2,,93195,,Pickering Parkway Southbound @ Portland,-79.073091,0,2,
93196,,43.8374808,,2,,93196,,Westbound @ 1538 Pickering Parkway,-79.0771218,0,2,
93197,,43.836377,,2,,93197,,Pickering Parkway Westbound @ Valley Farm,-79.079469,0,2,
93208,,43.830949,,2,,93208,,Altona Northbound @ Sparrow (North stop),-79.14252,0,2,
93216,,43.819415,,2,,93216,,Whites Southbound @ Kingston,-79.115736,0,1,
93217,,43.81854417000001,,2,,93217,,Whites Northbound @ Kingston,-79.115326,0,1,
93218,,43.8118895,,1,,93218,,Oklahoma Eastbound @ Whites,-79.1114637,0,1,
93219,,43.81194,,1,,93219,,Oklahoma Westbound @ Whites,-79.1119982,0,1,
93222,,43.812872,,2,,93222,,Oklahoma Eastbound @ Hillcrest,-79.10702,0,1,
93224,,43.813811,,2,,93224,,Oklahoma Eastbound @ West Shore,-79.102832,0,1,
93227,,43.79915600000001,,2,,93227,,Kingston Eastbound @ Port Union,-79.14547,0,1,
93228,,43.825384,,2,,93228,,Pine Grove Eastbound @ Oakburn,-79.145054,0,1,
93231,,43.827685,,1,,93231,,Pine Grove Eastbound @ Altona,-79.142003,0,1,
93232,,43.82773000000001,,1,,93232,,Pine Grove Westbound @ Altona,-79.142123,0,1,
93234,,43.821475,,2,,93234,,Krosno Eastbound @ Annland,-79.08085199999998,0,1,
93235,,43.821887,,2,,93235,,Krosno Eastbound @ Modlin,-79.078981,0,1,
93236,,43.906513,,2,,93236,,Adelaide Eastbound @ Ritson,-78.85589,0,1,
93240,,43.79950800000001,,2,,93240,,Kingston Westbound @ Sheppard,-79.145701,0,1,
93242,,43.873205,,2,,93242,,Thickson Southbound @ Consumers,-78.90715299999998,0,1,
93243,,43.85995852,,2,,93243,,Wentworth Eastbound @ Forbes,-78.89472,0,2,
93246,,43.85485,,2,,93246,,Phillip Murray Eastbound @ Skae,-78.87405,0,1,
93247,,43.88431645,,2,,93247,,Nichol Eastbound @ Springwood,-78.90604,0,1,
93248,,43.882694,,2,,93248,,Nichol Eastbound @ Thickson,-78.910251,0,1,
93249,,43.88349500000001,,2,,93249,,Southbound @ 164 Glen Hill,-78.91435,0,1,
93254,,43.8634583,,1,,93254,,Kingston Eastbound @ Salem,-79.0151977,0,1,
93255,,43.7923,,2,,93255,,Ellesmere Eastbound @ Meadowvale,-79.1639,0,1,
93257,,43.874044,,2,,93257,,Champlain Westbound @ Thornton,-78.885968,0,2,
93258,,43.8872229,,2,,93258,,Cochrane Nothbound @ Bonacord,-78.9559276,0,2,
93259,,43.792626,,2,,93259,,Ellesmere Westbound @ Meadowvale,-79.16329399999998,0,1,
93261,,43.88174,,2,,93261,,Cochrane Northbound @ Walnut,-78.95351,0,2,
93262,,43.894916,,2,,93262,,Cochrane Northbound @ Rossland,-78.959282,0,2,
93276,,43.876345,,2,,93276,,Champlain Westbound @ Fox,-78.878626,0,2,
93277,,43.88238126,,2,,93277,,Nichol Eastbound @ Thickson (West Side Stop),-78.91207989,0,2,
93293,,43.891066,,2,,93293,,Rosswell Southbound @ Gord Vinson,-78.798693,0,1,
93301,,43.89756,,2,,93301,,Prestonvale Northbound @ Glenabbey,-78.79482,0,1,
93305,,43.9029456,,2,,93305,,Sandringham Eastbound @ Yorkville,-78.790222,0,1,
93306,,43.90479976000001,,2,,93306,,Sandringham Northbound @ Hillhurst,-78.788302,0,1,
93307,,43.9060993,,2,,93307,,Sandringham Eastbound @ Trulls,-78.7866448,0,1,
93321,,43.829695,,2,,93321,,Altona Northbound @ Sparrow (South stop),-79.141957,0,2,
93322,,43.829703,,2,,93322,,Altona Southbound @ Sparrow (South stop),-79.14212,0,2,
93323,,43.914284,,2,,93323,,Courtice Northbound @ Moyse,-78.778853,0,1,
93324,,43.91644200000001,,2,,93324,,Courtice Southbound @ Nash,-78.77997,0,1,
93325,,43.916109,,2,,93325,,Courtice Northbound @ Nash,-78.779658,0,2,
93326,,43.920355,,2,,93326,,Courtice Northbound @ George Reynolds,-78.781595,0,1,
93327,,43.920052,,2,,93327,,Courtice Southbound @ George Reynolds,-78.781676,0,1,
93328,,43.92032600000001,,2,,93328,,George Reynolds Westbound @ Sleeman,-78.78806899999998,0,1,
93329,,43.92021600000001,,2,,93329,,George Reynolds Eastbound @ Sleeman,-78.787834,0,1,
93330,,43.919621,,2,,93330,,George Reynolds Westbound @ Trulls,-78.790942,0,1,
93338,,43.911656,,2,,93338,,Trulls Northbound @ Highway 2,-78.788656,0,1,
93347,,43.887704,,2,,93347,,Townline Southbound @ Grandview,-78.80528099999998,0,1,
93348,,43.886887,,2,,93348,,Grandview Westbound @ Wesley,-78.806272,0,1,
93349,,43.887969,,2,,93349,,Grandview Northbound @ Wesley,-78.81067299999998,0,1,
93350,,43.88987800000001,,2,,93350,,Bloor Westbound @ Grandview,-78.814294,0,2,
93353,,43.955816,,2,,93353,,Conlin Westbound @ Riverton,-78.86148,0,2,
93354,,43.955617,,2,,93354,,Conlin Eastbound @ Riverton,-78.861844,0,2,
93355,,43.953884,,2,,93355,,Wilson Southbound @ Conlin,-78.866753,0,2,
93356,,43.954223,,2,,93356,,Wilson Northbound @ Conlin,-78.866713,0,2,
93357,,43.9454436,,2,,93357,,Wilson Northbound @ Coldstream,-78.862774,0,1,
93358,,43.94918809,,2,,93358,,Wilson Southbound @ Greenhill,-78.86470199999998,0,1,
93359,,43.943242,,2,,93359,,Wilson Northbound @ Clearsky,-78.86174,0,1,
93360,,43.939709,,2,,93360,,Wilson Northbound @ Blackwood,-78.860169,0,1,
93361,,43.936911,,1,,93361,,Wilson Northbound @ Taunton,-78.85898,0,1,
93362,,43.932443,,2,,93362,,Wilson Northbound @ Beatrice,-78.857028,0,1,
93365,,43.929665,,2,,93365,,Harmony Southbound @ Beatrice,-78.845218,0,1,
93366,,43.92924,,2,,93366,,Harmony Northbound @ Beatrice,-78.844825,0,1,
93367,,43.928091,,2,,93367,,Harmony Southbound @ Storie,-78.844483,0,1,
93368,,43.92776,,2,,93368,,Harmony Northbound @ Storie,-78.84414599999998,0,1,
93369,,43.922688,,1,,93369,,Harmony Northbound @ Rossland (North side stop),-78.841933,0,1,
93370,,43.922125,,1,,93370,,Harmony Southbound @ Rossland,-78.84209,0,1,
93376,,43.90107504,,2,,93376,,Stevenson Southbound @ Woodcrest,-78.887003,0,1,
93377,,43.90133500000001,,2,,93377,,Adelaide Westbound @ Park,-78.875818,0,1,
93379,,43.900141,,2,,93379,,Adelaide Westbound @ Gibbons,-78.880768,0,1,
93387,,43.858568,,2,,93387,,Major Oaks Northbound @ Pepperwood,-79.08868099999998,0,1,
93388,,43.859848,,2,,93388,,Major Oaks Northbound @ Dellbrook,-79.089555,0,1,
93389,,43.86040400000001,,2,,93389,,Dellbrook Eastbound @ Chapman,-79.084541,0,1,
93394,,43.839987,,2,,93394,,Dixie Northbound @ Ridgewood,-79.103036,0,2,
93395,,43.84047936000001,,2,,93395,,Dixie Southbound @ Ridgewood,-79.10342,0,2,
93402,,43.82569,,2,,93402,,Strouds Westbound @ Autumn,-79.13275,0,1,
93403,,43.823157,,2,,93403,,Strouds Westbound @ Calvington,-79.135777,0,1,
93404,,43.821185,,2,,93404,,Altona Southbound @ Waterford,-79.138448,0,1,
93414,,43.828088,,2,,93414,,Strouds Westbound @ Fernam,-79.125989,0,1,
93415,,43.83702000000001,,1,,93415,,Finch Eastbound @ Rosebank,-79.134513,0,2,
93416,,43.83725,,1,,93416,,Finch Westbound @ Rosebank,-79.134109,0,1,
93420,,43.839284,,1,,93420,,Finch Westbound @ Whites,-79.124213,0,1,
93421,,43.822599,,2,,93421,,Altona Northbound @ Strouds,-79.138737,0,1,
93424,,43.94497350000001,,2,,93424,,Coldstream Eastbound @ Clearbrook,-78.8563396,0,1,
93425,,43.9437266,,2,,93425,,Harmony Southbound @ Coldstream,-78.8514735,0,1,
93426,,43.944385,,2,,93426,,Coldstream Eastbound @ Ritson,-78.872175,0,1,
93429,,43.89911137,,2,,93429,,Stevenson Southbound @ Adelaide,-78.88614699999998,0,1,
93432,,43.91756800000001,,2,,93432,,Harmony Southbound @ Glebe,-78.840044,0,1,
93433,,43.888622,,2,,93433,,Anderson Northbound @ Johnson,-78.924243,0,1,
93434,,43.88873825000001,,2,,93434,,Anderson Southbound @ Johnson,-78.924559,0,1,
93435,,43.858381,,2,,93435,,Dellbrook Eastbound @ Melman,-79.08071,0,1,
93439,,43.898086,,2,,93439,,Stevenson Southbound @ Madison,-78.885693,0,1,
93441,,43.864641,,2,,93441,,Brock Road Southbound @ Clearside,-79.081998,0,2,
93442,,43.864696,,2,,93442,,Rossland Eastbound @ Brock Road,-79.081702,0,2,
93450,,43.833656,,2,,93450,,Pickering Parkway Westbound @ Liverpool,-79.089201,0,1,
93453,,43.924544,,2,,93453,,Harmony Northbound @ Corbetts,-78.842742,0,1,
93454,,43.92509600000001,,2,,93454,,Harmony Southbound @ Corbetts,-78.843164,0,1,
93455,,43.903822,,2,,93455,,Stevenson Southbound @ Annapolis,-78.88820699999998,0,1,
93457,,43.85994,,2,,93457,,Brock Road Northbound @ Dellbrook,-79.07961,0,1,
93458,,43.85912,,2,,93458,,Brock Road Southbound @ Dellbrook,-79.07955,0,1,
93459,,43.85915911,,2,,93459,,Thornton Southbound @ Skae,-78.879187,0,1,
93460,,43.85911722,,2,,93460,,Thornton Northbound @ Skae,-78.879086,0,2,
93461,,43.85471414,,2,,93461,,Thornton Southbound @ Phillip Murray,-78.878845,0,1,
93462,,43.85448188,,2,,93462,,Phillip Murray Westbound @ Thornton,-78.878558,0,2,
93463,,43.8617546,,2,,93463,,Wentworth Eastbound @ Boundary,-78.8863301,0,2,
93464,,43.863046,,2,,93464,,Wentworth Westbound @ Thornton,-78.881491,0,2,
93465,,43.86294500000001,,2,,93465,,Wentworth Eastbound @ Thornton,-78.881117,0,1,
93466,,43.888891,,2,,93466,,Townline Southbound @ Down,-78.805747,0,1,
93469,,43.913733,,2,,93469,,Brook Hill Eastbound @ Green,-78.713055,0,1,
93472,,43.91462,,2,,93472,,Mill Southbound @ Edward,-78.587591,0,2,
93482,,43.9668955,,2,,93482,,Carnwith Eastbound @ Baldwin,-78.9578328,0,1,
93484,,43.967258,,2,,93484,,Carnwith Eastbound @ Watford,-78.951755,0,1,
93485,,43.9679088,,2,,93485,,Carnwith Eastbound @ Thickson,-78.9488879,0,1,
93491,,43.84361,,2,,93491,,Audley Northbound @ Crellin,-78.98639,0,2,
93493,,43.945803,,2,,93493,,Coldstream Eastbound @ Wilson,-78.86329499999998,0,1,
93496,,43.828737,,2,,93496,,Brock Road Southbound @ Quigley,-79.065713,0,2,
93497,,43.825056,,1,,93497,,Clements Eastbound @ Brock Road,-79.062901,0,1,
93498,,43.82558800000001,,2,,93498,,Eastbound @ 1845 Clements,-79.06062799999998,0,2,
93499,,43.826442,,2,,93499,,Eastbound @ 1885 Clements,-79.056838,0,2,
93500,,43.82698100000001,,2,,93500,,Clements Eastbound @ Squires Beach,-79.054408,0,2,
93501,,43.824718,,2,,93501,,Squires Beach Southbound @ Clements,-79.053242,0,2,
93502,,43.821685,,2,,93502,,Squires Beach Southbound @ McKay,-79.051934,0,2,
93504,,43.81876900000001,,2,,93504,,Southbound @ 770 McKay,-79.057412,0,2,
93506,,43.815712,,2,,93506,,Montgomery Park Westbound @ Brock Road,-79.059768,0,2,
93509,,43.819466,,2,,93509,,Sandy Beach Northbound @ Parkham,-79.072332,0,1,
93511,,43.8241576,,2,,93511,,Alyssum Westbound @ Krosno,-79.0759742,0,2,
93512,,43.8219172,,2,,93512,,Krosno Westbound @ Modlin,-79.0792351,0,1,
93519,,43.8144291,,2,,93519,,Montgomery Park Westbound @ OPG Pickering,-79.0652288,0,2,
93521,,43.899535,,2,,93521,,Adelaide Westbound @ Fernhill,-78.883283,0,2,
93527,,43.86224717000001,,2,,93527,,Wentworth Westbound @ Boundary (East side stop),-78.885536,0,2,
93532,,43.971806,,2,,93532,,Main Southbound @ Duchess,-78.615001,0,2,
93533,,43.964867,,2,,93533,,Main Southbound @ Winter,-78.612009,0,2,
93534,,43.89786363000001,,2,,93534,,Glenabbey Westbound @ Prestonvale,-78.794723,0,2,
93536,,43.901355,,2,,93536,,Glenabbey Southbound @ Oke,-78.792329,0,1,
93537,,43.900483,,2,,93537,,Glenabbey Northbound @ Found,-78.791802,0,1,
93542,,43.835851,,1,,93542,,Kingston Eastbound @ Liverpool,-79.09007,0,1,
93551,,43.89565665,,2,,93551,,Stevenson Southbound @ Creighton,-78.884573,0,1,
93552,,43.90136600000001,,2,,93552,,Harmony Northbound @ Capri,-78.832565,0,1,
93553,,43.95900300000001,,2,,93553,,Winchester Westbound @ Cachet,-78.936407,0,2,
93554,,43.858353,,2,,93554,,Victoria Westbound @ Jeffery,-78.953388,0,2,
93555,,43.85395,,2,,93555,,Victoria Westbound @ Halls,-78.973499,0,2,
93556,,43.852679,,2,,93556,,Bayly Westbound @ Lake Ridge,-78.979746,0,2,
93557,,43.852479,,2,,93557,,Bayly Eastbound @ Lake Ridge,-78.97930599999998,0,2,
93558,,43.853654,,2,,93558,,Victoria Eastbound @ Halls,-78.974109,0,2,
93559,,43.8581551,,2,,93559,,Victoria Eastbound @ Seaboard Gate,-78.9532997,0,2,
93562,,43.9562646,,2,,93562,,Britannia Westbound @ Kedron,-78.8795994,0,2,
93564,,43.955218,,2,,93564,,Britannia Westbound @ Pindar,-78.884259,0,2,
93568,,43.956057,,2,,93568,,Britannia Westbound @ Bridle,-78.892605,0,2,
93580,,43.874871,,2,,93580,,Burkholder Southbound @ Belcourt,-79.117902,0,2,
93582,,43.871065,,2,,93582,,Burkholder Southbound @ Hibiscus,-79.11385,0,2,
93595,,43.84649252894414,,2,,93595,,Dowty Northbound @ Hunt,-79.02741730050283,0,2,
93596,,43.8466257837757,,2,,93596,,Dowty Southbound @ Hunt,-79.02777620444002,0,2,
93597,,43.87798200000001,,2,,93597,,Wentworth Eastbound @ Wilson,-78.832502,0,2,
93598,,43.878892,,2,,93598,,Wentworth Eastbound @ Farewell,-78.829054,0,2,
93599,,43.82672,,2,,93599,,Liverpool Southbound @ East Shore Community Centre,-79.086556,0,1,
93603,,43.88046686853903,,2,,93603,,Des Newman Northbound @ Bonacord,-78.97824933459268,0,2,
93608,,43.88980200000001,,1,,93608,,Rossland Eastbound @ Des Newman,-78.983372,0,1,
93609,,43.889813,,1,,93609,,Rossland Westbound @ Des Newman,-78.984482,0,1,
93610,,43.89277,,2,,93610,,Rossland Westbound @ Coronation,-78.972246,0,2,
93611,,43.892561,,2,,93611,,Rossland Eastbound @ Coronation,-78.972611,0,2,
93622,,43.845427,,1,,93622,,Harwood Southbound @ Harwood Plaza,-79.019197,0,1,
93700,,43.900361,,2,,93700,,Ritson Northbound @ Bond,-78.853953,0,1,
93704,,44.10964400000001,,1,,93704,,Railway Southbound @ Albert,-79.125063,0,2,
93705,,43.90931,,2,,93705,,Highway 2 Eastbound @ Boswell,-78.715382,0,2,
93706,,43.84728002631663,,2,,93706,,Hunt Westbound @ Harwood,-79.02106152102711,0,2,
93707,,43.877851,,2,,93707,,Bloor Eastbound @ Park,-78.866602,0,2,
93708,,43.877762,,2,,93708,,Bloor Westbound @ Park,-78.86810699999998,0,2,
93710,,43.898724,,2,,93710,,Ritson Northbound @ Athol,-78.853139,0,2,
93711,,43.895036,,2,,93711,,Ritson Northbound @ Eulalie,-78.851457,0,2,
93712,,43.890786,,2,,93712,,Ritson Northbound @ Olive,-78.849532,0,2,
93713,,43.898959,,2,,93713,,Ritson Southbound @ Athol,-78.853486,0,2,
93714,,43.89525600000001,,2,,93714,,Ritson Southbound @ Eulalie,-78.85178,0,2,
93715,,43.891023,,2,,93715,,Ritson Southbound @ Olive,-78.849841,0,2,
93718,,43.902586,,2,,93718,,Ritson Southbound @ William,-78.855132,0,2,
93720,,43.908273,,1,,93720,,Clarington Northbound @ Prince William,-78.706862,0,2,
93721,,43.9121115,,1,,93721,,Durham Highway 2 @ Courtice Road,-78.777044,0,2,
93724,,43.9144556,,2,,93724,,Durham Highway 2 Westbound @ Solina,-78.756297,0,2,
93725,,43.9138579,,2,,93725,,Durham Highway 2 Eastbound @ Solina,-78.756069,0,2,
93726,,43.9140712,,2,,93726,,Durham Highway 2 Westbound @ Rundle,-78.745721,0,2,
93727,,43.9136054,,2,,93727,,Durham Highway 2 Eastbound @ Rundle,-78.745863,0,2,
93728,,43.9126438,,2,,93728,,Durham Highway 2 Westbound @ Holt,-78.734177,0,2,
93729,,43.9123477,,2,,93729,,Durham Highway 2 Eastbound @ Holt,-78.735274,0,2,
93730,,43.9107906,,2,,93730,,Durham Highway 2 Westbound @ Maple Grove,-78.72386,0,2,
93731,,43.91044930000001,,2,,93731,,Durham Highway 2 Eastbound @ Maple Grove,-78.723765,0,2,
93732,,43.9054377,,2,,93732,,Clarington Blvd Westbound @ Green Road,-78.70954,0,2,
93733,,43.9109185,,2,,93733,,Durham Highway 2 Eastbound @ Bowmanville Ave,-78.70230599999998,0,2,
93734,,43.9116381,,2,,93734,,Durham Highway 2 Westbound @ Bowmanville Ave,-78.701406,0,2,
93735,,43.923381,,2,,93735,,Garrard Northbound @ Griffen,-78.91789199999998,0,2,
93736,,43.919757,,2,,93736,,Garrard Northbound @ Gagnon,-78.91632199999998,0,2,
93737,,43.917454,,2,,93737,,Garrard Northbound @ Dryden,-78.915265,0,2,
93738,,43.915641,,2,,93738,,Dryden Eastbound @ Steele Valley,-78.918736,0,2,
93739,,43.91477900000001,,2,,93739,,Dryden Eastbound @ Waller,-78.921612,0,2,
93740,,44.108695,,2,,93740,,Brock Street Eastbound @ Toronto Street,-79.122934,0,2,
93747,,43.873089,,1,,93747,,Dundas Eastbound @ Des Newman,-78.971771,0,2,
93749,,43.873682,,1,,93749,,Dundas Westbound @ Des Newman,-78.970969,0,2,
93765,,43.88649853166958,,2,,93765,,Dean Westbound @ Ritson,-78.84746939310502,0,2,
93801,,43.933913,,2,,93801,,Scugog Northbound @ Concession 3,-78.701053,0,2,
93810,,43.936771,,2,,93810,,Northglen Eastbound @ Kenneth Cole,-78.711204,0,2,
939,,43.85629200000001,,2,,939,,Phillip Murray Eastbound @ Stevenson,-78.867462,0,1,
93937,,43.95228111,,2,,93937,,Simcoe Southbound @ Northern Dancer,-78.89825264,0,1,
93944,,43.839422,,1,,93944,,Finch Eastbound @ Whites,-79.122716,0,2,
93969,,43.80852500000001,,2,,93969,,Sheppard Westbound @ Meadowvale (East side stop),-79.170563,0,2,
93993,,43.783468,,2,,93993,,Progress Southbound @ Centennial College,-79.23197399999998,0,2,
93994,,43.781656,,2,,93994,,Progress Westbound @ Markham Road,-79.234801,0,2,
93997,,43.775976,,2,,93997,,Grangeway Southbound @ Progress,-79.250532,0,2,
93998,,43.77431700000001,,2,,93998,,Scarborough Centre Station,-79.258755,0,1,
940,,43.85653,,2,,940,,Phillip Murray Westbound @ Stevenson,-78.8671087,0,1,
94002,,43.78017420754376,,2,,94002,,Progress Eastbound @ Bellamy,-79.24343282725708,0,2,
94006,,43.781933,,2,,94006,,Progress Eastbound @ Markham Road,-79.233259,0,2,
94007,,43.783526,,2,,94007,,Progress Northbound @ Centennial College,-79.231618,0,2,
94009,,43.789947,,2,,94009,,Progress Northbound @ Milner Avenue,-79.23394999999998,0,2,
94029,,43.80845909723183,,2,,94029,,Sheppard Eastbound @ Meadowvale,-79.16992219791265,0,2,
94037,,43.913854,,2,,94037,,Trulls Northbound @ Nash,-78.789545,0,2,
94038,,43.917206,,2,,94038,,Trulls Northbound @ Cecil Found,-78.790964,0,2,
94039,,43.919116,,2,,94039,,Trulls Northbound @ George Reynolds,-78.791855,0,2,
94040,,43.917123,,2,,94040,,Trulls Southbound @ Devondale,-78.791102,0,2,
94041,,43.914181,,2,,94041,,Trulls Southbound @ Nash,-78.789765,0,2,
94042,,43.9112,,2,,94042,,Trulls Southbound @ Durham Highway 2,-78.788622,0,2,
94048,,43.952296,,2,,94048,,Grandview Southbound @ Greenhill,-78.844517,0,2,
94049,,43.952552,,2,,94049,,Conlin Westbound @ Ritson (East side stop),-78.87615,0,2,
94050,,43.95345187,,2,,94050,,Ritson Southbound @ Maine,-78.87719948260465,0,2,
94051,,43.956148,,2,,94051,,Britannia Eastbound @ Ritson,-78.878843,0,2,
94052,,43.95511,,2,,94052,,Britannia Eastbound @ Pindar,-78.88407,0,2,
94054,,43.78018,,2,,94054,,Progress Westbound @ Corporate Drive,-79.2444,0,2,
94059,,43.89052,,2,,94059,,McQuay Southbound @ Rossland,-78.97844,0,2,
94060,,43.889751,,2,,94060,,McQuay Eastbound @ Muir,-78.973695,0,2,
94061,,43.889924,,2,,94061,,McQuay Eastbound @ Jacob,-78.971264,0,2,
94062,,43.888161,,2,,94062,,McQuay Southbound @ Renfield,-78.969356,0,2,
94064,,43.88422400000001,,2,,94064,,McQuay Southbound @ Bonacord,-78.96784,0,2,
94066,,43.78888,,2,,94066,,Morningside Northbound @ Military Trail,-79.19394,0,1,
94067,,43.785544,,2,,94067,,Ellesmere Westbound @ Moringside,-79.19309199999998,0,2,
94070,,43.88665000000001,,2,,94070,,Ritson Southbound @ McNaughton,-78.8479,0,2,
94079,,43.84532500000001,,2,,94079,,Liverpool Northbound @ Finch,-79.094419,0,1,
94080,,43.848572,,2,,94080,,Valley Farm Northbound @ Bloomfield,-79.085389,0,1,
94081,,43.85717000000001,,2,,94081,,Greenmount Eastbound @ Major Oaks,-79.087286,0,2,
94082,,43.868608,,2,,94082,,Brock Road Northbound @ Rossland,-79.08292899999998,0,1,
94083,,43.867969,,2,,94083,,Brock Road Southbound @ Rossland,-79.083181,0,1,
94084,,43.874896,,2,,94084,,Brock Road Northbound @ William Jackson,-79.085571,0,1,
94085,,43.879619,,2,,94085,,Zents Westbound @ Brock Road,-79.088856,0,1,
94086,,43.857079,,2,,94086,,Greenmount Westbound @ Major Oaks,-79.087567,0,2,
94088,,43.834981,,2,,94088,,Monarch Northbound @ Clements,-79.021702,0,2,
94089,,43.833128,,2,,94089,,Clements Eastbound @ Finley,-79.027482,0,2,
94090,,43.832102,,2,,94090,,Clements Westbound @ Westney,-79.032704,0,1,
94091,,43.89807600000001,,2,,94091,,Adelaide Westbound @ Waverley,-78.890673,0,2,
94092,,43.89786500000001,,2,,94092,,Adelaide Eastbound @ Waverley,-78.891092,0,2,
94093,,43.958574,,2,,94093,,Winchester Eastbound @ Cachet,-78.937482,0,1,
94094,,43.957557,,1,,94094,,Winchester Eastbound @ Thickson,-78.942081,0,1,
94095,,43.844825,,2,,94095,,Liverpool Southbound @ Finch,-79.094491,0,1,
94096,,43.89873200000001,,2,,94096,,Adelaide Eastbound @ Stevenson,-78.886166,0,2,
94097,,43.899898,,2,,94097,,Adelaide Eastbound @ Gibbons,-78.881242,0,1,
94098,,43.90105,,2,,94098,,Adelaide Eastbound @ Park,-78.876259,0,2,
94099,,43.899015,,2,,94099,,Adelaide Westbound @ Stevenson,-78.885722,0,2,
941,,43.879998,,1,,941,,Stevenson Northbound @ Laval,-78.877266,0,1,
94100,,43.829,,1,,94100,,Whites Southbound @ Strouds (South side stop),-79.12018,0,2,
94101,,43.90754,,2,,94101,,Taunton Westbound @ Des Newman,-78.991035,0,2,
94105,,43.94436000000001,,2,,94105,,Baldwin-Highway 407 Park and Ride,-78.95963,0,1,
94107,,43.957026,,2,,94107,,Vipond Westbound @ Montgomery,-78.965508,0,2,
94108,,43.956074,,2,,94108,,Vipond Westbound @ Ferguson,-78.969778,0,2,
94109,,43.955498,,2,,94109,,Vipond Westbound @ Darrius Harns,-78.972343,0,2,
94110,,43.9609,,2,,94110,,Ashburn Northbound @ Carnwith,-78.97733,0,2,
94111,,43.96210700000001,,2,,94111,,Carnwith Eastbound @ Bayern,-78.97233799999998,0,2,
94112,,43.962238,,2,,94112,,Carnwith Eastbound @ Montgomery,-78.96767699999998,0,2,
94115,,43.95367,,2,,94115,,Britannia Eastbound @ Windfields Farm,-78.9102,0,2,
94125,,43.83272,,2,,94125,,Pickering Parkway Terminal Platform B13,-79.08561,0,1,
94126,,43.910968,,2,,94126,,Liberty Southbound @ King,-78.680541,0,2,
94128,,43.937716,,2,,94128,,Middle Southbound @ Northglen,-78.70322899999998,0,2,
94129,,43.934469,,2,,94129,,Middle Southbound @ Concession 3,-78.701693,0,2,
94130,,43.909904,,2,,94130,,Highway 2 Westbound @ Clarington,-78.707358,0,2,
94131,,43.913996,,2,,94131,,Scugog Northbound @ Church,-78.692533,0,2,
94132,,43.916935,,2,,94132,,Scugog Northbound @ O'Dell,-78.693467,0,2,
94133,,43.921037,,2,,94133,,Scugog Northbound @ Jackman,-78.695243,0,2,
94134,,43.925778,,2,,94134,,Scugog Northbound @ Longworth,-78.697377,0,2,
94135,,43.92721,,2,,94135,,Scugog Northbound @ Somerscales,-78.698014,0,2,
94136,,43.930879,,2,,94136,,Scugog Northbound @ Bons,-78.699653,0,2,
94138,,43.9336,,2,,94138,,Liberty Southbound @ Bons,-78.690382,0,2,
94139,,43.930353,,2,,94139,,Longworth Eastbound @ Liberty,-78.687673,0,2,
94140,,43.930813,,2,,94140,,Longworth Eastbound @ Swindells,-78.68607,0,2,
94141,,43.932234,,2,,94141,,Longworth Eastbound @ Rickaby,-78.681037,0,2,
94142,,43.928678,,2,,94142,,Mearns Southbound @ Elephant Hill,-78.677319,0,2,
94143,,43.92479500000001,,2,,94143,,Mearns Southbound @ Apple Blossom,-78.675549,0,2,
94144,,43.921414,,2,,94144,,Mearns Southbound @ Concession,-78.673993,0,2,
94145,,43.919858,,2,,94145,,Concession Westbound @ Bradshaw,-78.676874,0,1,
94146,,43.917681,,2,,94146,,Liberty Southbound @ Concession,-78.68347799999998,0,2,
94147,,43.914013,,2,,94147,,Liberty Southbound @ Wellington,-78.68187399999998,0,2,
94148,,43.916446,,2,,94148,,Adelaide Westbound @ Vega,-78.819526,0,2,
94149,,43.916608,,2,,94149,,Adelaide Eastbound @ Vega,-78.818197,0,2,
94150,,43.91442,,2,,94150,,Adelaide Avenue Westbound @ Fleetwood Drive,-78.82482,0,2,
94151,,43.88991,,2,,94151,,Gibb Street Eastbound @ Centre Street,-78.86271,0,2,
94154,,43.89319,,2,,94154,,Meadowglade Road Eastbound @ Cale Ave,-78.79788,0,2,
94155,,43.893629,,2,,94155,,Meadowglade Road Westbound @ Partner Drive,-78.797909,0,2,
94156,,43.84698196755844,,2,,94156,,Notion Northbound @ Orchard,-79.062990334321,0,2,
94157,,43.84735143467752,,2,,94157,,Notion Southbound @ 1920 Notion,-79.0633417037042,0,2,
94158,,43.8514096192947,,2,,94158,,Notion Southbound @ Kingston,-79.06517901687988,0,2,
94159,,43.89826,,2,,94159,,Olive Avenue Eastbound @ Athabasca Street,-78.81341999999998,0,2,
94160,,43.89858000000001,,2,,94160,,Olive Avenue Westbound @ Athabasca Street,-78.81287,0,2,
94161,,43.82911,,2,,94161,,Range Line westbound @ Poplar Ave,-78.99907,0,2,
94162,,43.8889,,2,,94162,,Townline Northbound @ Gord Vinson Ave,-78.8056,0,2,
94163,,43.90250000000001,,2,,94163,,Townline Road Northbound @ Barron Court,-78.8115,0,2,
94164,,43.90617000000001,,2,,94164,,Townline Road Northbound @ King Street,-78.81309,0,2,
94165,,43.90441,,2,,94165,,Townline Road Northbound @ Kingsway Gate,-78.81234,0,2,
94166,,43.9002,,2,,94166,,Townline Road Northbound @ Kingswood Drive,-78.8105,0,2,
94167,,43.90231,,2,,94167,,Townline Road Southbound @ Barron Court,-78.81161,0,2,
94168,,43.90677,,2,,94168,,Townline Road Southbound @ King Street,-78.81365,0,2,
94169,,43.90409,,2,,94169,,Townline Road Southbound @ Kingsway Gate,-78.81238,0,2,
94170,,43.90005,,2,,94170,,Townline Road Southbound @ Kingswood Drive,-78.81064,0,2,
94174,,43.91157,,2,,94174,,Dryden westbound @ Anderson,-78.93509,0,2,
94175,,43.90983,,2,,94175,,Dryden westbound @ Fallingbrook,-78.93857,0,2,
94176,,43.90666,,2,,94176,,Dryden westbound @ Lipton,-78.94091,0,2,
94177,,43.89478,,2,,94177,,Manning westbound @ Garden,-78.93749,0,2,
94178,,43.89468,,2,,94178,,Manning eastbound @ Garden (east side stop),-78.93684,0,2,
94179,,43.89422,,2,,94179,,Manning eastbound @ Ribblesdale,-78.93021,0,2,
94180,,43.894618,,2,,94180,,Manning westbound @ Ribblesdale,-78.929653,0,2,
94183,,43.87535276525429,,2,,94183,,Hopkins northbound @ Burns,-78.91853754153097,0,2,
94184,,43.87562366344467,,2,,94184,,Hopkins southbound @ Burns,-78.9188969078832,0,2,
94187,,43.933393,,1,,94187,,Simcoe Southbound @ Taunton (North Side Stop),-78.879221,0,2,
94188,,43.932763,,1,,94188,,Simcoe Northbound @ Taunton (South Side Stop),-78.878746,0,2,
94189,,43.945083,,2,,94189,,Simcoe Southbound @ Commencement,-78.89219799999998,0,2,
94191,,43.905014,,2,,94191,,Thickson Northbound @ Rossland (North Side Stop),-78.920609,0,1,
94194,,43.945712,,2,,94194,,Coldstream Eastbound @ 1224 Coldstream,-78.846137,0,2,
94195,,43.945809,,2,,94195,,Coldstream Westbound @ 1224 Coldstream,-78.846577,0,2,
94198,,43.94732,,2,,94198,,Conlin Westbound @ Founders,-78.8995,0,2,
94199,,43.94703,,2,,94199,,Conlin Eastbound @ Founders,-78.900019,0,2,
942,,43.88574400000001,,2,,942,,Stevenson Northbound @ Gibb,-78.879867,0,1,
94200,,43.91964,,2,,94200,,Thickson Southbound @ Darren,-78.927378,0,2,
94201,,43.914213,,2,,94201,,Thickson Southbound @ Dryden,-78.924996,0,2,
94210,,43.948164,,1,,94210,,Conlin Eastbound @ Simcoe,-78.895029,0,2,
94211,,43.947863,,1,,94211,,Conlin Westbound @ Simcoe,-78.897454,0,2,
94213,,43.870916,,2,,94213,,Annes Northbound @ Harriet,-78.948986,0,2,
94214,,43.875489,,2,,94214,,Annes Northbound @ Dunlop,-78.950973,0,2,
94216,,43.774202,,2,,94216,,Town Centre @ Scarborough Centre Station,-79.255099,0,2,
94217,,43.903411,,2,,94217,,Twin Streams Westbound @ Country Lane,-78.971618,0,2,
94218,,43.900967,,2,,94218,,Country Lane Southbound @ Randolph,-78.970565,0,2,
94219,,43.89899,,2,,94219,,Country Lane Southbound @ Nugget,-78.970089,0,2,
94220,,43.896271,,2,,94220,,Country Lane Southbound @ Tidewater,-78.967311,0,2,
94221,,43.894248,,2,,94221,,Country Lane Southbound @ Rossland,-78.965899,0,2,
94223,,43.875683,,2,,94223,,Annes Southbound @ Dunlop,-78.951239,0,2,
94224,,43.872021,,2,,94224,,Annes Southbound @ Annes Street Park,-78.949746,0,2,
94225,,43.869621,,2,,94225,,Burns Eastbound @ McCulloug,-78.947512,0,2,
94226,,43.917041,,2,,94226,,Brookhouse Northbound @ Ravey,-78.580493,0,2,
94227,,43.919042,,2,,94227,,King Westbound @ Arthur,-78.582741,0,2,
94229,,43.903226,,2,,94229,,Baseline Westbound @ Mearns,-78.666988,0,2,
94230,,43.903224,,2,,94230,,Baseline Eastbound @ Mearns,-78.666437,0,2,
94231,,43.901265,,2,,94231,,Baseline Eastbound @ Liberty,-78.675124,0,2,
94232,,43.897822,,2,,94232,,Audley Recreation Centre,-79.008041,0,2,
94234,,43.79567,,2,,94234,,Milner Westbound @ Neilson,-79.21631600435,0,2,
94235,,43.79112700000001,,2,,94235,,Milner Westbound @ Dailing,-79.23035,0,2,
94236,,43.795607,,2,,94236,,Milner Eastbound @ Neilson,-79.215841,0,2,
94237,,43.800134,,2,,94237,,Milner Eastbound @ Morningside,-79.199407,0,2,
94238,,43.873245,,2,,94238,,Thickson Northbound @ Stellar,-78.906742,0,2,
94241,,43.917215,,1,,94241,,Mill Southbound @ King,-78.588771,0,2,
94242,,43.775294,,2,,94242,,Triton Eastbound @ McCowan,-79.25296,0,2,
94245,,43.82657,,2,,94245,,Strouds Westbound @ Rosebank,-79.12952,0,2,
94247,,43.941682,,2,,94247,,Conlin Eastbound @ Garrard,-78.925171,0,2,
94248,,43.941728,,2,,94248,,Conlin Westbound @ Garrard,-78.925415,0,2,
94249,,43.9565,,2,,94249,,Harmony Northbound @ Conlin,-78.856854,0,1,
94250,,43.956196,,2,,94250,,Harmony Southbound @ Conlin,-78.857071,0,1,
94251,,43.82038,,2,,94251,,Woodview Southbound @ Waterford,-79.14524,0,2,
94254,,43.829124,,1,,94254,,Westney Westbound @ Finley,-79.025151,0,2,
94255,,43.830815,,2,,94255,,Westney Westbound @ Monarch,-79.017295,0,2,
94260,,43.83038,,2,,94260,,Range Line Eastbound @ Maple,-78.992901,0,2,
94261,,43.94068872022612,,2,,94261,,Taunton Eastbound @ 942 Taunton,-78.8451387554087,0,2,
94262,,43.94069561,,2,,94262,,Taunton Westbound @ 981 Taunton,-78.84512280689917,0,2,
94263,,43.843818,,2,,94263,,Bayly Eastbound @ Harwood,-79.018779,0,2,
94264,,43.941505,,2,,94264,,Taunton Eastbound @ Grandview,-78.839898,0,1,
94265,,43.941894,,2,,94265,,Taunton Westbound @ Grandview,-78.839279,0,1,
94266,,43.943927,,2,,94266,,Taunton Westbound @ Townline,-78.830505,0,1,
94267,,43.944773,,2,,94267,,Townline Northbound @ Taunton,-78.830057,0,2,
94268,,43.957312,,2,,94268,,Townline Northbound @ Woodstream,-78.835685,0,2,
94269,,43.957856,,2,,94269,,Townline Southbound @ Woodstream,-78.836065,0,2,
94270,,44.11026,,2,,94270,,Nelkydd Northbound @ Planks,-79.11048,0,2,
94271,,43.9584248056271,,2,,94271,,Conlin Westbound @ Coppermine,-78.8505766073314,0,2,
94272,,43.95897397115791,,2,,94272,,Conlin Eastbound @ Grandview,-78.8474985254163,0,2,
94273,,43.77474773123638,,2,,94273,,Bushby Westbound @ McCowan,-79.2519258973932,0,2,
94274,,43.88402578,,2,,94274,,Des Newman Northbound @ Bertram,-78.98122256,0,2,
94275,,43.88125,,2,,94275,,Des Newman Southbound @ Bonacord,-78.9794,0,2,
94276,,43.96380036921115,,2,,94276,,Windfields Farm Eastbound @ Steeplechase,-78.90042774106978,0,2,
94277,,43.96528150752407,,2,,94277,,Windfields Farm Eastbound @ Bridle,-78.89408279340002,0,2,
94278,,43.96413464002297,,2,,94278,,Windfields Farm Westbound @ Steeplechase,-78.8999691001511,0,2,
94279,,43.88144311,,2,,94279,,Cochrane Southbound @ Walnut,-78.95355749,0,2,
94280,,43.88776596000001,,2,,94280,,Cochrane Southbound @ Bonacord,-78.95636797,0,2,
94281,,43.88529,,2,,94281,,Des Newman Southbound @ Bertram,-78.982,0,2,
94282,,43.82013112,,2,,94282,,Lake Driveway Southbound @ Parkes,-79.03083625,0,2,
94283,,43.82006930615894,,2,,94283,,Finley Northbound @ Lake Driveway,-79.02036100759061,0,2,
94284,,43.8229,,2,,94284,,Finley Northbound @ Panter,-79.02533,0,2,
94285,,43.82591917,,2,,94285,,Finley Northbound @ Bashford,-79.0260696,0,2,
94288,,43.84321295,,2,,94288,,Finch Westbound @ Dixie,-79.1054951,0,2,
94289,,43.84223144,,2,,94289,,Monarch Northbound @ Bayly,-79.02475559,0,2,
94290,,43.83043,,2,,94290,,Pickering Beach Southbound @ Dreyer,-79.00176,0,2,
94291,,43.82615108,,2,,94291,,Finley Southbound @ Bashford,-79.02614314,0,2,
94292,,43.82344489,,2,,94292,,Finley Southbound @ Parkes,-79.02610127,0,2,
94293,,43.82901300000001,,2,,94293,,Westney Eastbound @ Finley,-79.02480025,0,2,
94294,,43.8567068,,2,,94294,,Whites Northbound @ Third Concession,-79.13157602,0,2,
94295,,43.85653,,2,,94295,,Whites Soutbound @ Third Concession,-79.1317,0,2,
94296,,43.82025856425799,,2,,94296,,Lake Driveway Northbound @ Parkes,-79.03077268725127,0,2,
94297,,43.8289,,2,,94297,,Lake Driveway Eastbound @ Walker,-79.032247,0,2,
94299,,43.8979389485016,,2,,94299,,Bowmanville Southbound @ Baseline,-78.6911738941678,0,1,
94300,,43.9014706787916,,2,,94300,,Green Northbound @ Aspen Springs,-78.7086273836003,0,1,
94301,,43.8857924166106,,2,,94301,,Northbound @ 1461 Harwood (Grandview Kids Health Centre),-79.0357858164005,0,1,
94302,,43.8854916869003,,2,,94302,,Southbound  @ 1461 Harwood (Grandview Kids Health Cenntre),-79.0354632856262,0,1,
94303,,43.9048372717572,,2,,94303,,Green Northbound @ Clarington,-78.7100851889842,0,1,
94304,,43.9242315,,2,,94304,,Thickson Northbound @ Gateway,-78.9285625,0,1,
94305,,43.9246256,,2,,94305,,Thickson Southbound @ Summerside,-78.9290882,0,1,
94306,,43.9285861,,2,,94306,,Thickson Northbound @ Glengowan,-78.9305623,0,1,
944,,43.88983507,,2,,944,,Stevenson Northbound @ Cartier (North side stop),-78.881804,0,1,
9473,,43.7866837,,2,,9473,,Ellesmere Westbound @ Military Trail,-79.188152,0,1,
952,,43.90700600000001,,2,,952,,Stevenson Southbound @ Marion,-78.889543,0,1,
953,,43.893374,,2,,953,,Stevenson Southbound @ King,-78.883644,0,1,
955,,43.89017014,,2,,955,,Southbound @ 104 Stevenson,-78.882155,0,1,
958,,43.8854908,,2,,958,,Stevenson Southbound @ Gibb,-78.880117,0,1,
959,,43.88086100000001,,1,,959,,Stevenson Southbound @ Laval,-78.877979,0,1,
963,,43.859104,,2,,963,,Phillip Murray Eastbound @ Park,-78.85776,0,1,
970,,43.85932600000001,,2,,970,,Phillip Murray Westbound @ Park,-78.857453,0,1,
973,,43.85493300000001,,2,,973,,Phillip Murray Westbound @ Skae,-78.874097,0,2,
984,,43.857059,,2,,984,,Lakeview Westbound @ Lakemount,-78.85286,0,1,
985,,43.856405,,2,,985,,Lakeview Westbound @ Park,-78.855793,0,1,
987,,43.864875,,2,,987,,Cedar Northbound @ Banff,-78.8492,0,1,
988,,43.867212,,2,,988,,Cedar Northbound @ Killarney,-78.850005,0,1,
989,,43.86968,,2,,989,,Cedar Northbound @ Wentworth,-78.851091,0,1,
990,,43.868657,,2,,990,,Oxford Southbound @ Calvert,-78.853995,0,1,
991,,43.867666,,2,,991,,Oxford Southbound @ Chandos,-78.853571,0,1,
992,,43.86448,,2,,992,,Oxford Southbound @ Kinmount,-78.8526593,0,1,
993,,43.862572,,2,,993,,Oxford Southbound @ Dwight,-78.85359099999998,0,1,
994,,43.86046419,,2,,994,,Oxford Southbound @ Phillip Murray,-78.85287099999998,0,1,
995,,43.86114517,,2,,995,,Oxford Northbound @ Emerald,-78.852973,0,1,
996,,43.862763,,2,,996,,Oxford Northbound @ Dwight,-78.853452,0,1,
997,,43.864934,,2,,997,,Oxford Northbound @ Venus,-78.852459,0,1,
998,,43.868849,,2,,998,,Oxford Northbound @ Wentworth,-78.853952,0,1,
999,,43.87028394,,2,,999,,Glen Northbound @ Porter,-78.854489,0,1,
92047,,43.8333729,,2,,92047_merged_94307,,Clements Westbound @ Finley,-79.0269981,0,1,
93999,,43.778029,,2,,93999_merged_94308,,McCowan Northbound @ Progress,-79.253278,0,2,
94102,,43.907115,,2,,94102_merged_94309,,Taunton Easttbound @ Des Newman,-78.991807,0,2,
94233,,43.800447,,2,,94233_merged_94310,,Morningside @ Milner,-79.19938,0,2,
94258,,43.83092,,2,,94258_merged_94311,,Dreyer Westbound @ Graham,-79.00319,0,1,
92047,,43.833197,,2,,92047_merged_94312,,Clements Westbound @ Finley,-79.027767,0,1,
93999,,43.776643,,2,,93999_merged_94313,,McCowan Northbound @ Progress,-79.252857,0,2,
94102,,43.907115,,2,,94102_merged_94314,,Taunton Eastbound @ Des Newman,-78.991807,0,2,
94233,,43.800447,,2,,94233_merged_94315,,Morningside Southbound @ Milner,-79.19938,0,2,
94258,,43.83092,,2,,94258_merged_94316,,Dreyer Westbound  @ Graham,-79.00319,0,1,
3029,,43.858316,,2,,3029,,Kingston Eastbound @ Westney Heights Plaza,-79.038196,0,2,
